|service_request_id|status|service_name|service_code|description|agency_responsible|requested_datetime|updated_datetime|expected_datetime|address|zipcode|latitude|longitude|requested_date|updated_date|last_table_update
0|SR21103031|NEW|"""Building, residential"""|"""BLD-RES"""|"""MOLD AND BATHROOM SMELLS LIKE SEWEGE
THESE ISSUES HAVE BEEN ONGOING FOR 3 YEARS 
PROPERTY MANAGER IS AWARE- HAS ADV TENENT TO BLEACH WALLS AND USE VINEGAR FOR TOILET ISSUES """|Cinc Building Dept|2021-12-06|2021-12-06|2022-12-06|"""2001 SUNSET LN - GJ0930433614 """|45238.0|39.1265685437892|-84.5786973793545|12/06/2021 12:00:00 AM|12/06/2021 12:00:00 AM|12/06/2021 12:00:00 AM
1|SR21103214|NEW|"""Building, residential"""|"""BLD-RES"""|"""Issue existing orders to new owner."""|Cinc Building Dept|2021-12-06|2021-12-06|2022-12-06|"""3107 COLERAIN AV - GJ1272435237 """|45225.0|39.1403552038228|-84.5386507780255|12/06/2021 12:00:00 AM|12/06/2021 12:00:00 AM|12/06/2021 12:00:00 AM
2|SR21103056|NEW|"""Plumbing, defective"""|"""PLMB_DEF"""|""" 2ND FL BATHRMN LEAKING INTO 1ST CAUSING MOLD"""|Cinc Health Dept|2021-12-06|2021-12-06|2022-06-04|"""843 DELEHANTY CT - GJ0782331779 """|45238.0|39.110403520287704|-84.5963707751785|12/06/2021 12:00:00 AM|12/06/2021 12:00:00 AM|12/06/2021 12:00:00 AM
3|SR21103261|PEND|"""Sign, handicap parking signs"""|"""HNDCPPRK"""|"""Requesting handicap sign """|Dept of Trans and Eng|2021-12-06|2021-12-06|2022-06-04|"""4450 EASTERN AV - GJ2284032530 """|45226.0|39.113449634078705|-84.4226028085173|12/06/2021 12:00:00 AM|12/06/2021 12:00:00 AM|12/06/2021 12:00:00 AM
4|SR21103248|NEW|"""Food operation, request gen"""|"""GRCRYCNC"""|"""McDonald's- Bugs in tea."""|Cinc Health Dept|2021-12-06|2021-12-06|2022-06-04|"""5341 GLENWAY AV - GJ0696433597 """|45238.0|39.1269728676522|-84.6057467788967|12/06/2021 12:00:00 AM|12/06/2021 12:00:00 AM|12/06/2021 12:00:00 AM
5|SR21103222|NEW|"""Roaches - bldg or apartment"""|"""ROACHES"""|"""ROACHES """|Cinc Health Dept|2021-12-06|2021-12-06|2022-06-04|"""6092 BELMONT AV - GJ1047441896 """|45224.0|39.2008458649686|-84.562600936478|12/06/2021 12:00:00 AM|12/06/2021 12:00:00 AM|12/06/2021 12:00:00 AM
6|SR21103145|OPEN|"""Unsanitary living conditions"""|"""BD_UNSAN"""|"""APT FLOODED 4 MONTHS AGO STILL HAS NOT BEEN FIXED OR CLEANED """|Cinc Health Dept|2021-12-06|2021-12-06|2022-06-04|"""5305 W KINGSWAY - GJ1725244053 """|45215.0|39.2185959781577|-84.4834801455517|12/06/2021 12:00:00 AM|12/06/2021 12:00:00 AM|12/06/2021 12:00:00 AM
7|SR21103028|NEW|"""Litter, private property"""|"""LITR-PRV"""|"""trash, tires, plastic pools, and debre in the yard next to the driveway leaning on fence and blowing into neighbors yard"""|Public Services|2021-12-06|2021-12-06|2022-01-20|"""2562 MONTANA AV - GJ0906536800 """|45211.0|39.1553078774229|-84.5804679274318|12/06/2021 12:00:00 AM|12/06/2021 12:00:00 AM|12/06/2021 12:00:00 AM
8|SR21103306|NEW|"""Service complaint, str clean"""|"""SRVCMPSC"""|"""Citizen states that the street sweeper did not come down and service Blackstone Pl and Bluefield Pl last month in November, and would like to bring this to the supervisor's attention."""|Public Services|2021-12-06|2021-12-06|2022-01-05|"""1849 BLACKSTONE PL - GJ1972241625 """|45237.0|39.1961169184215|-84.45569048384259|12/06/2021 12:00:00 AM|12/06/2021 12:00:00 AM|12/06/2021 12:00:00 AM
9|SR21103142|PEND|"""Sign, handicap parking signs"""|"""HNDCPPRK"""|"""HANDICAP PARKING SIGN REQUEST """|Dept of Trans and Eng|2021-12-06|2021-12-06|2022-06-04|"""1016 GRAND AV - GJ1093031872 """|45204.0|39.110490413657395|-84.56044128891459|12/06/2021 12:00:00 AM|12/06/2021 12:00:00 AM|12/06/2021 12:00:00 AM
10|SR21103313|NEW|"""Mold, building or apartment"""|"""MOLD"""|"""*** BE ADVISED THIS IS DAY ONE OF COVID FOR THIS CLIENT ** WANTS TO REPORT SOMETHING  GROWING ON THE FLOOR. ADV WE WILL NOT RESPONDE UNTIL QUARINTINE IS OVER.**"""|Cinc Health Dept|2021-12-06|2021-12-06|2022-06-04|"""3559 READING RD - GJ1688236046 """|45229.0|39.1466106972506|-84.4903228374827|12/06/2021 12:00:00 AM|12/06/2021 12:00:00 AM|12/06/2021 12:00:00 AM
11|SR21103190|NEW|"""Damage Claim - TROD"""|"""DMGTROD"""|"""AT THE INTERSECTION OF MONTGOMERY RD AND CLARION AVE- CLOSEST ADDRESS THE CITIZEN PROVIDED WAS 1808 CLARION AVE - CITIZENS TIRE BALL JOINT SNAPPED- TIRE ROLLED UNDERNEATH THE CAR """|Public Services|2021-12-06|2021-12-06|2022-01-05|"""1808 CLARION AV - GJ1874335890 """|45207.0|39.1447388089871|-84.4688656818622|12/06/2021 12:00:00 AM|12/06/2021 12:00:00 AM|12/06/2021 12:00:00 AM
12|SR21103310|NEW|"""Building, residential"""|"""BLD-RES"""|"""Electrial problem,circuits blowing out. Appiances constanly failing."""|Cinc Building Dept|2021-12-06|2021-12-06|2022-12-06|"""5622 GARDENHILL LN - GJ1487840980 """|45232.0|39.191527381278604|-84.5119339049762|12/06/2021 12:00:00 AM|12/06/2021 12:00:00 AM|12/06/2021 12:00:00 AM
13|SR21103231|NEW|"""Building, fire req insp-res"""|"""BLDRRFIF"""|"""Fire in ground floor rear apartment"""|Cinc Building Dept|2021-12-06|2021-12-06|2022-06-04|"""2870 MONTANA AV - GJ0802636093 """|45211.0|39.149188421946|-84.5927058087457|12/06/2021 12:00:00 AM|12/06/2021 12:00:00 AM|12/06/2021 12:00:00 AM
14|SR21103032|NEW|"""Litter, private property"""|"""LITR-PRV"""|"""Transfer: 12/06/2021 12:44 PM/SGOODWINREFER TO LITTER - Request entered through the Web. Refer to Intake Questions for further description."""|Public Services|2021-12-06|2021-12-06|2022-01-20|"""2630 KIPLING AV, CINC - GJ0910741898"""|45239.0|39.201200978848|-84.5784068428614|12/06/2021 12:00:00 AM|12/06/2021 12:00:00 AM|12/06/2021 12:00:00 AM
15|SR21103320|NEW|"""Rats, problem/infestation"""|"""RATS"""|"""RATS IN THE BLD"""|Cinc Health Dept|2021-12-06|2021-12-06|2022-06-04|"""5622 GARDENHILL LN - GJ1487840980 """|45232.0|39.191527381278604|-84.5119339049762|12/06/2021 12:00:00 AM|12/06/2021 12:00:00 AM|12/06/2021 12:00:00 AM
16|SR21103044|NEW|"""Mold, building or apartment"""|"""MOLD"""|"""BASEMENT """|Cinc Health Dept|2021-12-06|2021-12-06|2022-06-04|"""1948 E SEYMOUR AV - GJ1940140555 """|45237.0|39.1865656603229|-84.45974045339271|12/06/2021 12:00:00 AM|12/06/2021 12:00:00 AM|12/06/2021 12:00:00 AM
17|SR21103345|NEW|"""Building, residential"""|"""BLD-RES"""|"""No heat, furnace is broken, property owner has told resident that they would replace the furnance for the last 2 yrs, there are childern with-in the home. Thermostat reads at a steady 60 degree with the space heaters running. Rats are coming in the kitchen and bathroom. They have chewed holes in the kitchen sink, and bathroom cabinet. Pipes in the home from the up stairs bathroom busted back in the begining of Oct 2021,  landlord shut off the water and plumbing to that bathroom and has not returned to fix that issue. There is water damage and possible mold. """|Cinc Building Dept|2021-12-06|2021-12-06|2022-12-06|"""1598 GLEN PARKER AV - GJ1244538628 """|45223.0|39.17094985013961|-84.54081902354609|12/06/2021 12:00:00 AM|12/06/2021 12:00:00 AM|12/06/2021 12:00:00 AM
18|SR21103290|NEW|"""Building, vacant and open res """|"""BLD_VACR"""|"""Reissue of B202005081 repair fire damage to Apt 1 as Keep vacant to new owner """|Cinc Building Dept|2021-12-06|2021-12-06|2022-02-16|"""3777 W LIBERTY ST - GJ0958632519 """|45205.0|39.1166405758483|-84.575773940213|12/06/2021 12:00:00 AM|12/06/2021 12:00:00 AM|12/06/2021 12:00:00 AM
19|SR21103118|NEW|"""Mold, building or apartment"""|"""MOLD"""|"""MOLD IN BEDROOM/ JOE LEYTZE IS THE LANDLORD TELE# 490-3705"""|Cinc Health Dept|2021-12-06|2021-12-06|2022-06-04|"""2604 PRICE AV - GJ1123431472 """|45204.0|39.1068154971234|-84.5570554200425|12/06/2021 12:00:00 AM|12/06/2021 12:00:00 AM|12/06/2021 12:00:00 AM
20|SR21103051|NEW|"""Litter, private property"""|"""LITR-PRV"""|"""Request entered through the Web. Refer to Intake Questions for further description."""|Public Services|2021-12-06|2021-12-06|2022-01-20|"""2500 FERGUSON RD, CINC - GJ0743734248"""|45238.0|39.1327250303003|-84.60007947606171|12/06/2021 12:00:00 AM|12/06/2021 12:00:00 AM|12/06/2021 12:00:00 AM
21|SR21103233|OPEN|"""Plumbing, defective"""|"""PLMB_DEF"""|"""defective plumbing"""|Cinc Health Dept|2021-12-06|2021-12-06|2022-06-04|"""7070 GLEN MEADOW LN - GJ1873040852 """|45237.0|39.189410128717604|-84.4674072101431|12/06/2021 12:00:00 AM|12/06/2021 12:00:00 AM|12/06/2021 12:00:00 AM
22|SR21103226|NEW|"""Plumbing, defective"""|"""PLMB_DEF"""|"""BATHOOM """|Cinc Health Dept|2021-12-06|2021-12-06|2022-06-04|"""6092 BELMONT AV - GJ1047441896 """|45224.0|39.2008458649686|-84.562600936478|12/06/2021 12:00:00 AM|12/06/2021 12:00:00 AM|12/06/2021 12:00:00 AM
23|SR21103094|OPEN|"""Service complaint, str clean"""|"""SRVCMPSC"""|"""CITIZEN REQUESTING A CALL BACK REGARDING STREET SWEEPING. STATED STREET SWEEPING WAS SCHEDULED FOR 12/2 AND THE STREET WAS NOT CLEANED. WOULD LIKE TO KNOW WHEN STREET WILL BE CLEANED. """|Public Services|2021-12-06|2021-12-06|2022-01-05|"""5341 INDIAN MOUND AV - GJ2121238949 """|45212.0|39.1716504497264|-84.4393235760318|12/06/2021 12:00:00 AM|12/06/2021 12:00:00 AM|12/06/2021 12:00:00 AM
24|SR21103336|NEW|"""Building, residential"""|"""BLD-RES"""|"""Citizen states she has contacted the property owner about concerns, with no responce. Her stove/oven is not working with the door falling off the appliance. No filter in the furnace. Multiple electric outlets not working and burnt looking. There are several rooms where the lighting does not work, kitchen/dining, bedroom, and laundry. Last, all but one window will not open they are sealed shut."""|Cinc Building Dept|2021-12-06|2021-12-06|2022-12-06|"""1650 HAMER ST - GJ1478732441 """|45202.0|39.114674629427206|-84.51569326868109|12/06/2021 12:00:00 AM|12/06/2021 12:00:00 AM|12/06/2021 12:00:00 AM
25|SR21103061|OPEN|"""Service complaint, trash"""|"""SVCCMPLT"""|"""PROPERTY OWNER WOULD LIKE A SUPERISOR CALL BACK - HE SAID ITEMS WERE SCHEDULED AND WERE NOT PICKED UP, STILL AT THE CURB """|Public Services|2021-12-06|2021-12-06|2022-01-05|"""3209 W 8TH ST - GJ1063531325 """|45205.0|39.105634271960504|-84.5640213528186|12/06/2021 12:00:00 AM|12/06/2021 12:00:00 AM|12/06/2021 12:00:00 AM
26|SR21103054|NEW|"""Mold, building or apartment"""|"""MOLD"""|"""BATHRM WALLS DUE TO LEAK FOR 2ND FL BATHRM"""|Cinc Health Dept|2021-12-06|2021-12-06|2022-06-04|"""843 DELEHANTY CT - GJ0782331779 """|45238.0|39.110403520287704|-84.5963707751785|12/06/2021 12:00:00 AM|12/06/2021 12:00:00 AM|12/06/2021 12:00:00 AM
27|SR21103283|OPEN|"""Sidewalk, repair haz"""|"""SIDWLKH"""|"""Request entered through the Web. Refer to Intake Questions for further description."""|Dept of Trans and Eng|2021-12-06|2021-12-06|2022-06-04|"""907 MAIN ST, CINC - GJ1520231500"""|45202.0|39.1061018969434|-84.51118953921109|12/06/2021 12:00:00 AM|12/06/2021 12:00:00 AM|12/06/2021 12:00:00 AM
28|SR21103275|NEW|"""Building, vacant and open res """|"""BLD_VACR"""|"""Issue orders to new owner to update."""|Cinc Building Dept|2021-12-06|2021-12-06|2022-02-16|"""2645 KIPLING AV - GJ0906941830 """|45239.0|39.2005966123886|-84.5788760587858|12/06/2021 12:00:00 AM|12/06/2021 12:00:00 AM|12/06/2021 12:00:00 AM
29|SR21103185|NEW|"""Roaches - bldg or apartment"""|"""ROACHES"""|"""UNIT 2 IS VACANT AND SOURCE OF THE INFESTATION """|Cinc Health Dept|2021-12-06|2021-12-06|2022-06-04|"""87 SHEEHAN AV - GJ1843143715 """|45216.0|39.2152591188595|-84.469942371497|12/06/2021 12:00:00 AM|12/06/2021 12:00:00 AM|12/06/2021 12:00:00 AM
30|SR21103279|NEW|"""Building, residential"""|"""BLD-RES"""|"""Reissue to update conditions."""|Cinc Building Dept|2021-12-06|2021-12-06|2022-12-06|"""5660 GLENVIEW AV - GJ1111141221 """|45224.0|39.194615195314796|-84.55543690103501|12/06/2021 12:00:00 AM|12/06/2021 12:00:00 AM|12/06/2021 12:00:00 AM
31|SR21103099|NEW|"""Building, residential"""|"""BLD-RES"""|"""Bedroom ceiling is leaking making the floor wet. Holes allowing field mice in."""|Cinc Building Dept|2021-12-06|2021-12-06|2022-12-06|"""2850 HARRISON AV - GJ0798935544 """|45211.0|39.1442562359334|-84.5932961092866|12/06/2021 12:00:00 AM|12/06/2021 12:00:00 AM|12/06/2021 12:00:00 AM
32|SR21103372|NEW|"""Litter, private property"""|"""LITR-PRV"""|"""Request entered through the Web. Refer to Intake Questions for further description."""|Public Services|2021-12-06|2021-12-06|2022-01-20|"""2334 ROHS ST, CINC - GJ1427533700"""|45219.0|39.1261408747906|-84.5211979611466|12/06/2021 12:00:00 AM|12/06/2021 12:00:00 AM|12/06/2021 12:00:00 AM
33|SR21103151|CLOS|"""Street, repaved\resurfaced"""|"""STRRPR"""|"""Transfer: 12/06/2021 12:47 PM/SGOODWINREFER TO DOTE - READ NOTES  - Request entered through the Web. Refer to Intake Questions for further description."""|Dept of Trans and Eng|2021-12-06|2021-12-06|2022-01-05|"""3231 DARWIN PL, CINC - GJ0669936380  PRIVATE STREET"""|45211.0|39.1523330251632|-84.6080196800474|12/06/2021 12:00:00 AM|12/06/2021 12:00:00 AM|12/06/2021 12:00:00 AM
34|SR21103129|CLOS|"""Sign, grnd mnted new/chang/rem"""|"""NW/MSSNG"""|"""Request entered through the Web. Refer to Intake Questions for further description."""|Dept of Trans and Eng|2021-12-06|2021-12-06|2022-03-06|"""6109 MORROW ST, CINC - GJ2577930025"""|45230.0|39.0901569045773|-84.3894749989937|12/06/2021 12:00:00 AM|12/06/2021 12:00:00 AM|12/06/2021 12:00:00 AM
35|SR21103215|NEW|"""Dumping, prv prop <2500 sq ft"""|"""DUMP-PVS"""|"""Request entered through the Web. Refer to Intake Questions for further description."""|Public Services|2021-12-06|2021-12-06|2022-01-20|"""2823 HIGHLAND AV, CINC - GJ1582034394"""|45219.0|39.1320049428082|-84.50312553173079|12/06/2021 12:00:00 AM|12/06/2021 12:00:00 AM|12/06/2021 12:00:00 AM
36|SR21103358|NEW|"""Sign, grnd mnted new/chang/rem"""|"""NW/MSSNG"""|"""Request entered through the Web. Refer to Intake Questions for further description."""|Dept of Trans and Eng|2021-12-06|2021-12-06|2022-03-06|"""885 ZAN CT, CINC - GJ2261933960"""|45226.0|39.1263886999074|-84.42467364079559|12/06/2021 12:00:00 AM|12/06/2021 12:00:00 AM|12/06/2021 12:00:00 AM
37|SR21103225|NEW|"""Mold, building or apartment"""|"""MOLD"""|"""BATHOOM """|Cinc Health Dept|2021-12-06|2021-12-06|2022-06-04|"""6092 BELMONT AV - GJ1047441896 """|45224.0|39.2008458649686|-84.562600936478|12/06/2021 12:00:00 AM|12/06/2021 12:00:00 AM|12/06/2021 12:00:00 AM
38|SR21103033|NEW|"""Building, residential"""|"""BLD-RES"""|"""Request entered through the Web. Refer to Intake Questions for further description."""|Cinc Building Dept|2021-12-06|2021-12-06|2022-12-06|"""3802 LLEWELLYN AV, CINC - GJ1177636947"""|45223.0|39.1559793879299|-84.5490794726136|12/06/2021 12:00:00 AM|12/06/2021 12:00:00 AM|12/06/2021 12:00:00 AM
39|SR21103357|NEW|"""Sign, grnd mnted new/chang/rem"""|"""NW/MSSNG"""|"""Request entered through the Web. Refer to Intake Questions for further description."""|Dept of Trans and Eng|2021-12-06|2021-12-06|2022-03-06|"""884 ZAN CT, CINC - GJ2264933938"""|45226.0|39.1261883811497|-84.4243332048369|12/06/2021 12:00:00 AM|12/06/2021 12:00:00 AM|12/06/2021 12:00:00 AM
40|SR21103245|NEW|"""Building, vacant and open Com"""|"""BLD_VACC"""|"""Issue existing orders to new owner"""|Cinc Building Dept|2021-12-06|2021-12-06|2022-02-16|"""2503 SPRING GROVE AV - GJ1289733877 """|45214.0|39.128068135595704|-84.53708161101|12/06/2021 12:00:00 AM|12/06/2021 12:00:00 AM|12/06/2021 12:00:00 AM
41|SR21103065|CLOS|"""Mice, building has mice"""|"""MICE-BLD"""|"""INFESTED, """|Cinc Health Dept|2021-12-06|2021-12-06|2022-06-04|"""2630 STANTON AV - GJ1681034060 """|45206.0|39.12874798697|-84.49179886824109|12/06/2021 12:00:00 AM|12/06/2021 12:00:00 AM|12/06/2021 12:00:00 AM
42|SR21103219|NEW|"""Building, vacant and open res """|"""BLD_VACR"""|"""Issue existing orders to new owner"""|Cinc Building Dept|2021-12-06|2021-12-06|2022-02-16|"""2607 COOK ST - GJ1302033993 """|45214.0|39.129085069259894|-84.53563012300641|12/06/2021 12:00:00 AM|12/06/2021 12:00:00 AM|12/06/2021 12:00:00 AM
43|SR21103144|NEW|"""Light, new/change"""|"""LGHT,NWS"""|"""Request entered through the Web. Refer to Intake Questions for further description."""|Dept of Trans and Eng|2021-12-06|2021-12-06|2022-03-06|"""3434 DARWIN PL, CINC - """|45211.0|39.1523807780439|-84.6079611480025|12/06/2021 12:00:00 AM|12/06/2021 12:00:00 AM|12/06/2021 12:00:00 AM
44|SR21103176|NEW|"""Animal, waste problem"""|"""DOG_WSTE"""|"""CITIZEN STATES THAT THE NEIGHBOR HAS 10 DOGS AND THERE IS A HORRIBLE SMELL """|Cinc Health Dept|2021-12-06|2021-12-06|2022-06-04|"""1854 HURON AV - GJ1869235258 """|45207.0|39.1390569627817|-84.4696587308174|12/06/2021 12:00:00 AM|12/06/2021 12:00:00 AM|12/06/2021 12:00:00 AM
45|SR21103321|NEW|"""Parking, grass front yd res"""|"""PRKNGYRD"""|"""Reissue of B202002147"""|Cinc Building Dept|2021-12-06|2021-12-06|2022-06-04|"""3770 W LIBERTY ST - GJ0961732561 """|45205.0|39.1170097226414|-84.5754040818903|12/06/2021 12:00:00 AM|12/06/2021 12:00:00 AM|12/06/2021 12:00:00 AM
46|SR21103080|OPEN|"""Sidewalk, repair haz"""|"""SIDWLKH"""|"""Request entered through the Web12/06/2021 12:00:00 AM. Refer to Intake Questions for further description."""|Dept of Trans and Eng|2021-12-06|2021-12-06|2022-06-04|"""2137 BEECHMONT AV, CINC - GJ2594330437"""|45230.0|39.0938207904811|-84.3874306986909|12/06/2021 12:00:00 AM|12/06/2021 12:00:00 AM|12/06/2021 12:00:00 AM
47|SR21103039|NEW|"""Litter, private property"""|"""LITR-PRV"""|"""construction debre in the yard all over the place"""|Public Services|2021-12-06|2021-12-06|2022-01-20|"""224 KINSEY AV - GJ1577833666 """|45219.0|39.125456233695104|-84.5038451379547|12/06/2021 12:00:00 AM|12/06/2021 12:00:00 AM|12/06/2021 12:00:00 AM
48|SR21103217|NEW|"""Dumping, prv prop <2500 sq ft"""|"""DUMP-PVS"""|"""Request entered through the Web. Refer to Intake Questions for further description."""|Public Services|2021-12-06|2021-12-06|2022-01-20|"""2657 HIGHLAND AV, CINC - GJ1581334232"""|45219.0|39.1305499247929|-84.50325333613871|12/06/2021 12:00:00 AM|12/06/2021 12:00:00 AM|12/06/2021 12:00:00 AM
49|SR21103341|NEW|"""Litter, private property"""|"""LITR-PRV"""|"""Request entered through the Web. Refer to Intake Questions for further description."""|Public Services|2021-12-06|2021-12-06|2022-01-20|"""5020 WINTON RIDGE LN, CINC - GJ1456140023"""|45232.0|39.1829945589447|-84.5158887929615|12/06/2021 12:00:00 AM|12/06/2021 12:00:00 AM|12/06/2021 12:00:00 AM
50|SR21103154|NEW|"""Building, residential"""|"""BLD-RES"""|"""All rooms are cracking. Air is coming through the walls"""|Cinc Building Dept|2021-12-06|2021-12-06|2022-12-06|"""2692 LAFEUILLE CIR - GJ0845834360 """|45211.0|39.1334882017506|-84.5882396663355|12/06/2021 12:00:00 AM|12/06/2021 12:00:00 AM|12/06/2021 12:00:00 AM
51|SR21103256|NEW|"""Building, vacant and open res """|"""BLD_VACR"""|"""Issue existing orders to receiver, Prodigy Properties"""|Cinc Building Dept|2021-12-06|2021-12-06|2022-02-16|"""1150 GROESBECK RD - GJ1264241222 """|45224.0|39.1942519330245|-84.5377301337895|12/06/2021 12:00:00 AM|12/06/2021 12:00:00 AM|12/06/2021 12:00:00 AM
52|SR21103196|NEW|"""Pavement markings, faded"""|"""PAVMK"""|"""Transfer: 12/06/2021 12:50 PM/SGOODWINREFER TO DPS- READ NOTES  - Request entered through the Web. Refer to Intake Questions for further description."""|Public Services|2021-12-06|2021-12-06|2022-01-05|"""235 W MITCHELL AV, CINC - GJ1501637933"""|45232.0|39.1640698302654|-84.511289018285|12/06/2021 12:00:00 AM|12/06/2021 12:00:00 AM|12/06/2021 12:00:00 AM
53|SR21103371|NEW|"""Litter, private property"""|"""LITR-PRV"""|"""Request entered through the Web. Refer to Intake Questions for further description."""|Public Services|2021-12-06|2021-12-06|2022-01-20|"""2232 STRATFORD AV, CINC - GJ1413033468"""|45219.0|39.1240918451261|-84.5229442807286|12/06/2021 12:00:00 AM|12/06/2021 12:00:00 AM|12/06/2021 12:00:00 AM
54|SR21103210|NEW|"""Building, residential"""|"""BLD-RES"""|"""Issue existing orders to new owner"""|Cinc Building Dept|2021-12-06|2021-12-06|2022-12-06|"""2904 COLERAIN AV - GJ1294134644 """|45225.0|39.1349581665513|-84.5363326360783|12/06/2021 12:00:00 AM|12/06/2021 12:00:00 AM|12/06/2021 12:00:00 AM
55|SR21103220|NEW|"""Dumping, prv prop <2500 sq ft"""|"""DUMP-PVS"""|"""Request entered through the Web. Refer to Intake Questions for further description."""|Public Services|2021-12-06|2021-12-06|2022-01-20|"""235 GREENDALE AV, CINC - GJ1464936460"""|45220.0|39.150896354989|-84.51599471628441|12/06/2021 12:00:00 AM|12/06/2021 12:00:00 AM|12/06/2021 12:00:00 AM
56|SR21103049|NEW|"""Mold, building or apartment"""|"""MOLD"""|"""BASEMENT """|Cinc Health Dept|2021-12-06|2021-12-06|2022-06-04|"""4909 CLEVES WARSAW PIKE - GJ0745032633 """|45238.0|39.1181737220683|-84.60043116461429|12/06/2021 12:00:00 AM|12/06/2021 12:00:00 AM|12/06/2021 12:00:00 AM
57|SR21103344|NEW|"""Building, residential"""|"""BLD-RES"""|"""No heat"""|Cinc Building Dept|2021-12-06|2021-12-06|2022-12-06|"""2986 HIGHFOREST LN - GJ1063839452 """|45223.0|39.1788101010215|-84.5614636411068|12/06/2021 12:00:00 AM|12/06/2021 12:00:00 AM|12/06/2021 12:00:00 AM
58|SR21103304|NEW|"""Building, vacant and open res """|"""BLD_VACR"""|"""reissue of 202100469 to sole owner"""|Cinc Building Dept|2021-12-06|2021-12-06|2022-02-16|"""22 GLEN ESTE PL - GJ1560736934 """|45217.0|39.154919050774105|-84.5047873276047|12/06/2021 12:00:00 AM|12/06/2021 12:00:00 AM|12/06/2021 12:00:00 AM
59|SR21103293|NEW|"""Building, residential"""|"""BLD-RES"""|"""Reissue of B202005419 to new owner"""|Cinc Building Dept|2021-12-06|2021-12-06|2022-12-06|"""3777 W LIBERTY ST - GJ0958632519 """|45205.0|39.1166405758483|-84.575773940213|12/06/2021 12:00:00 AM|12/06/2021 12:00:00 AM|12/06/2021 12:00:00 AM
60|SR21103010|NEW|"""Parking, grass front yd res"""|"""PRKNGYRD"""|"""Request entered through the Web. Refer to Intake Questions for further description."""|Cinc Building Dept|2021-12-06|2021-12-06|2022-06-04|"""1030 ACADEMY AV, CINC - GJ0937631874"""|45205.0|39.110891950392705|-84.5784032876785|12/06/2021 12:00:00 AM|12/06/2021 12:00:00 AM|12/06/2021 12:00:00 AM
61|SR21103203|NEW|"""Vehicle, abandon priv p access"""|"""ABAN-VPR"""|"""Request entered through the Web. Refer to Intake Questions for further description."""|Cinc Health Dept|2021-12-06|2021-12-06|2022-01-25|"""828 SUIRE AV, CINC - """|45205.0|39.107890108987796|-84.581924232705|12/06/2021 12:00:00 AM|12/06/2021 12:00:00 AM|12/06/2021 12:00:00 AM
62|SR21103120|NEW|"""Mice, building has mice"""|"""MICE-BLD"""|"""MICE"""|Cinc Health Dept|2021-12-06|2021-12-06|2022-06-04|"""2850 HARRISON AV - GJ0798935544 """|45211.0|39.1442562359334|-84.5932961092866|12/06/2021 12:00:00 AM|12/06/2021 12:00:00 AM|12/06/2021 12:00:00 AM
63|SR21103136|OPEN|"""Mold, building or apartment"""|"""MOLD"""|"""PER VM - BATHRM CEILING """|Cinc Health Dept|2021-12-06|2021-12-06|2022-06-04|"""849 YORK ST - GJ1365032680 """|45214.0|39.117105254858|-84.528750701389|12/06/2021 12:00:00 AM|12/06/2021 12:00:00 AM|12/06/2021 12:00:00 AM
64|SR21102960|NEW|"""Litter, private property"""|"""LITR-PRV"""|"""Request entered through the Web. Refer to Intake Questions for further description."""|Public Services|2021-12-05|2021-12-05|2022-01-19|"""2035 READING RD, CINC - GJ1605232950"""|45202.0|39.118151650754|-84.5003089544051|12/05/2021 12:00:00 AM|12/05/2021 12:00:00 AM|12/05/2021 12:00:00 AM
65|SR21102951|NEW|"""Parking, grass front yd res"""|"""PRKNGYRD"""|"""Request entered through the Web. Refer to Intake Questions for further description."""|Cinc Building Dept|2021-12-05|2021-12-05|2022-06-03|"""4694 RAPID RUN RD, CINC - GJ0794431945"""|45238.0|39.1118715559775|-84.5949233470842|12/05/2021 12:00:00 AM|12/05/2021 12:00:00 AM|12/05/2021 12:00:00 AM
66|SR21102914|NEW|"""Litter, private property"""|"""LITR-PRV"""|"""Request entered through the Web. Refer to Intake Questions for further description."""|Public Services|2021-12-05|2021-12-05|2022-01-19|"""5025 RELLEUM AV, CINC - GJ0702132747"""|45238.0|39.1193094664659|-84.60534456524071|12/05/2021 12:00:00 AM|12/05/2021 12:00:00 AM|12/05/2021 12:00:00 AM
67|SR21102970|OPEN|"""Sidewalk, repair haz"""|"""SIDWLKH"""|"""Request entered through the Web. Refer to Intake Questions for further description."""|Dept of Trans and Eng|2021-12-05|2021-12-06|2022-06-03|"""DIXMYTH AV & WHITFIELD AV"""|45220.0|39.1399764643777|-84.52390210107|12/05/2021 12:00:00 AM|12/06/2021 12:00:00 AM|12/06/2021 12:00:00 AM
68|SR21102937|CLOS|"""Litter, private property"""|"""LITR-PRV"""|"""Request entered through the Web. Refer to Intake Questions for further description."""|Public Services|2021-12-05|2021-12-06|2022-01-19|"""1735 WESTWOOD AV, CINC - GJ1135333490"""|45214.0|39.1249578860943|-84.5550510104033|12/05/2021 12:00:00 AM|12/06/2021 12:00:00 AM|12/06/2021 12:00:00 AM
69|SR21102923|NEW|"""Litter, private property"""|"""LITR-PRV"""|"""Request entered through the Web. Refer to Intake Questions for further description."""|Public Services|2021-12-05|2021-12-05|2022-01-19|"""1919 WASHBURN ST, CINC - GJ1163238123"""|45223.0|39.1666040094875|-84.55038059722341|12/05/2021 12:00:00 AM|12/05/2021 12:00:00 AM|12/05/2021 12:00:00 AM
70|SR21102965|NEW|"""Default, parks"""|"""DFLTPARK"""|"""Transfer: 12/06/2021 3:38 AM/SMOORETRANSFER TO PARKS IN A WALKING  TRAIL  - Request entered through the Web. Refer to Intake Questions for further description."""|Park Department|2021-12-05|2021-12-06|2022-01-05|"""4104 DUMONT ST, CINC - GJ2185731819"""|45226.0|39.107314017807106|-84.43418001679109|12/05/2021 12:00:00 AM|12/06/2021 12:00:00 AM|12/06/2021 12:00:00 AM
71|SR21103264|OPEN|"""Sidewalk, Obstructions"""|"""ADASDWKO"""|"""Citizens states side walk is being blocked by tree branches and citizens are having to walk in the street. """|Dept of Trans and Eng|2021-12-06|2021-12-06|2022-06-04|"""3097 LOSANTIVILLE AV - GJ2190540294 """|45213.0|39.1835868356752|-84.43086299581721|12/06/2021 12:00:00 AM|12/06/2021 12:00:00 AM|12/06/2021 12:00:00 AM
72|SR21103353|NEW|"""Dumping, prv prop <2500 sq ft"""|"""DUMP-PVS"""|"""Request entered through the Web. Refer to Intake Questions for further description."""|Public Services|2021-12-06|2021-12-06|2022-01-20|"""1683 KNOX ST, CINC - GJ1166133938"""|45214.0|39.128920635476|-84.55134455806142|12/06/2021 12:00:00 AM|12/06/2021 12:00:00 AM|12/06/2021 12:00:00 AM
73|SR21103153|NEW|"""Building, residential"""|"""BLD-RES"""|"""ceiling caving in/toilet leaking/light fixture removed"""|Cinc Building Dept|2021-12-06|2021-12-06|2022-12-06|"""5305 W KINGSWAY - GJ1725244053 """|45215.0|39.2185959781577|-84.4834801455517|12/06/2021 12:00:00 AM|12/06/2021 12:00:00 AM|12/06/2021 12:00:00 AM
74|SR21103121|NEW|"""Sign Shop,Internal New Request"""|"""SGNSHPNI"""|"""Sign to honor Chief Eliot Isaac. Contact Captain Aaron Jones for further details."""|Public Services|2021-12-06|2021-12-06|2022-12-06|"""3300 COLERAIN AV - GJ1278335589 """|45225.0|39.1435054955578|-84.53785690441421|12/06/2021 12:00:00 AM|12/06/2021 12:00:00 AM|12/06/2021 12:00:00 AM
75|SR21103105|CLOS|"""Corner can, new"""|"""CRNCAN-N"""|"""Request entered through the Web. Refer to Intake Questions for further description."""|Public Services|2021-12-06|2021-12-06|2022-01-05|"""1710 ELM ST, CINC - """|45202.0|39.1144271055711|-84.5193419266648|12/06/2021 12:00:00 AM|12/06/2021 12:00:00 AM|12/06/2021 12:00:00 AM
76|SR21103042|NEW|"""Building, residential"""|"""BLD-RES"""|"""The AnnMarie shelter has had no hot water for the last 2 weeks for the residents. Its at least the entire first fl."""|Cinc Building Dept|2021-12-06|2021-12-06|2022-12-06|"""2499 READING RD - GJ1592333774 """|45206.0|39.1263947851103|-84.50213713840071|12/06/2021 12:00:00 AM|12/06/2021 12:00:00 AM|12/06/2021 12:00:00 AM
77|SR21103206|NEW|"""Sewage, surfacing priv prop"""|"""SWGTSDOP"""|"""ON SIDE OF THE PNC BLD FACING HAMILTON AVE  POSS SEWAGE OR JUST FECES"""|Cinc Health Dept|2021-12-06|2021-12-06|2022-06-04|"""5851 HAMILTON AV - GJ1184541683 """|45224.0|39.1985963454599|-84.546796529718|12/06/2021 12:00:00 AM|12/06/2021 12:00:00 AM|12/06/2021 12:00:00 AM
78|SR21103366|NEW|"""Litter, private property"""|"""LITR-PRV"""|"""Request entered through the Web. Refer to Intake Questions for further description."""|Public Services|2021-12-06|2021-12-06|2022-01-20|"""333 W MCMILLAN ST, CINC - GJ1400933896"""|45219.0|39.1279722026039|-84.5242159636645|12/06/2021 12:00:00 AM|12/06/2021 12:00:00 AM|12/06/2021 12:00:00 AM
79|SR21103128|NEW|"""Plumbing, defective"""|"""PLMB_DEF"""|"""**CALLER HAS COVID*** THIS IS DAY ONE OF QUARENTINE **TOILET BROKE STOVE BROKE"""|Cinc Health Dept|2021-12-06|2021-12-06|2022-06-04|"""1237 DEWEY AV - GJ0903232401 """|45205.0|39.1157176392304|-84.5822123469557|12/06/2021 12:00:00 AM|12/06/2021 12:00:00 AM|12/06/2021 12:00:00 AM
80|SR21103364|NEW|"""Parking, grass front yd res"""|"""PRKNGYRD"""|"""Request entered through the Web. Refer to Intake Questions for further description."""|Cinc Building Dept|2021-12-06|2021-12-06|2022-06-04|"""2327 CHICKASAW ST, CINC - GJ1417133659"""|45219.0|39.1257983829109|-84.5224116006621|12/06/2021 12:00:00 AM|12/06/2021 12:00:00 AM|12/06/2021 12:00:00 AM
81|SR21103307|NEW|"""Litter, private property"""|"""LITR-PRV"""|"""Request entered through the Web. Refer to Intake Questions for further description."""|Public Services|2021-12-06|2021-12-06|2022-01-20|"""4724 GREEN GLEN LN, CINC - GJ0788533236"""|45238.0|39.123508547339604|-84.59519949379359|12/06/2021 12:00:00 AM|12/06/2021 12:00:00 AM|12/06/2021 12:00:00 AM
82|SR21103157|NEW|"""Rats, problem/infestation"""|"""RATS"""|"""FROM THIS ADDRESS THAT HAS TRASH IN THE YARD CAUSING RAT ISSUE AT 1425 , OK TO COME TO 1425 TO VIEW"""|Cinc Health Dept|2021-12-06|2021-12-06|2022-06-04|"""1417 W NORTH BEND RD - GJ1219942049 """|45224.0|39.201806900759|-84.54258381577509|12/06/2021 12:00:00 AM|12/06/2021 12:00:00 AM|12/06/2021 12:00:00 AM
83|SR21103303|NEW|"""Building, residential"""|"""BLD-RES"""|"""WATER GUSHING IN FRONT YARD - GCWW NOTIFIED"""|Cinc Building Dept|2021-12-06|2021-12-06|2022-12-06|"""3557 VINE ST - GJ1491236050 """|45220.0|39.1471373500742|-84.5131076816199|12/06/2021 12:00:00 AM|12/06/2021 12:00:00 AM|12/06/2021 12:00:00 AM
84|SR21103254|OPEN|"""Service complaint, trash"""|"""SVCCMPLT"""|"""Citizen states that his toters are placed in the street each collection week. Said he is tired of paying for new cans that are damaged due to being hit by cars. Says he has video of the toters in the street """|Public Services|2021-12-06|2021-12-06|2022-01-05|"""458 ELBERON AV - GJ1043430624 """|45205.0|39.099373859566|-84.5665657144173|12/06/2021 12:00:00 AM|12/06/2021 12:00:00 AM|12/06/2021 12:00:00 AM
85|SR21103229|PEND|"""Sign, handicap parking signs"""|"""HNDCPPRK"""|""" """|Dept of Trans and Eng|2021-12-06|2021-12-06|2022-06-04|"""1744 DALEWOOD PL - GJ1899239407 """|45237.0|39.176334372141596|-84.4648535335062|12/06/2021 12:00:00 AM|12/06/2021 12:00:00 AM|12/06/2021 12:00:00 AM
86|SR21103053|OPEN|"""Service complaint, trash"""|"""SVCCMPLT"""|"""Request entered through the Web. Refer to Intake Questions for further description."""|Public Services|2021-12-06|2021-12-06|2022-01-05|"""4324 BEECH HILL AV, CINC - GJ1285538172"""|45223.0|39.1667465718092|-84.5362094062628|12/06/2021 12:00:00 AM|12/06/2021 12:00:00 AM|12/06/2021 12:00:00 AM
87|SR21103150|NEW|"""Animal bite/scratch-dog """|"""ANIMBDOG"""|"""Request entered through the Web. Refer to Intake Questions for further description."""|Cinc Health Dept|2021-12-06|2021-12-06|2022-02-04|"""138 E COURT ST, CINC - GJ1516731586"""|45202.0|39.1068946932946|-84.5115576501407|12/06/2021 12:00:00 AM|12/06/2021 12:00:00 AM|12/06/2021 12:00:00 AM
88|SR21103367|NEW|"""Graffiti, removal"""|"""GRFITI"""|"""Request entered through the Web. Refer to Intake Questions for further description."""|Public Services|2021-12-06|2021-12-06|2022-01-05|"""326 WARNER ST, CINC - GJ1399033586"""|45219.0|39.12518471894089|-84.5245270972898|12/06/2021 12:00:00 AM|12/06/2021 12:00:00 AM|12/06/2021 12:00:00 AM
89|SR21103183|NEW|"""Building, residential"""|"""BLD-RES"""|"""CITIZEN STATES THAT SHE HAS MOLD IN BATHROOM, NON WORKING TOILET AND NON WORKING KITCHEN SINK THAT IS OVERFLOWING WATER EVERYWHERE. """|Cinc Building Dept|2021-12-06|2021-12-06|2022-12-06|"""2453 WESTWOOD NORTHERN BLVD - GJ0935135646 """|45211.0|39.1448503374567|-84.5775203377877|12/06/2021 12:00:00 AM|12/06/2021 12:00:00 AM|12/06/2021 12:00:00 AM
90|SR21103227|NEW|"""Rats, problem/infestation"""|"""RATS"""|"""INSIDE AND OUT , IN THA HALLS """|Cinc Health Dept|2021-12-06|2021-12-06|2022-06-04|"""6092 BELMONT AV - GJ1047441896 """|45224.0|39.2008458649686|-84.562600936478|12/06/2021 12:00:00 AM|12/06/2021 12:00:00 AM|12/06/2021 12:00:00 AM
91|SR21102856|NEW|"""Litter, private property"""|"""LITR-PRV"""|"""Request entered through the Web. Refer to Intake Questions for further description."""|Public Services|2021-12-04|2021-12-04|2022-01-18|"""3538 SCHWARTZE AV, CINC - GJ0589535666"""|45211.0|39.1458605413982|-84.61747187769629|12/04/2021 12:00:00 AM|12/04/2021 12:00:00 AM|12/04/2021 12:00:00 AM
92|SR21102859|NEW|"""Litter, private property"""|"""LITR-PRV"""|"""Request entered through the Web. Refer to Intake Questions for further description."""|Public Services|2021-12-04|2021-12-04|2022-01-18|"""222 LYON ST, CINC - GJ1451933817"""|45219.0|39.127124152042|-84.5183560968748|12/04/2021 12:00:00 AM|12/04/2021 12:00:00 AM|12/04/2021 12:00:00 AM
93|SR21102872|CLOS|"""Litter, private property"""|"""LITR-PRV"""|"""Request entered through the Web. Refer to Intake Questions for further description."""|Public Services|2021-12-04|2021-12-06|2022-01-18|"""2512 COOK ST, CINC - """|45214.0|39.1278129281252|-84.5348810445529|12/04/2021 12:00:00 AM|12/06/2021 12:00:00 AM|12/06/2021 12:00:00 AM
94|SR21102875|NEW|"""Litter, private property"""|"""LITR-PRV"""|"""Request entered through the Web. Refer to Intake Questions for further description."""|Public Services|2021-12-04|2021-12-04|2022-01-18|"""3565 TRIMBLE AV, CINC - GJ1894535808"""|45207.0|39.1439516304995|-84.4665406677105|12/04/2021 12:00:00 AM|12/04/2021 12:00:00 AM|12/04/2021 12:00:00 AM
95|SR21102783|NEW|"""Litter, private property"""|"""LITR-PRV"""|"""Request entered through the Web. Refer to Intake Questions for further description."""|Public Services|2021-12-03|2021-12-03|2022-01-17|"""703 CHALFONTE PL, CINC - GJ1687436449"""|45229.0|39.150247598050704|-84.49027767035909|12/03/2021 12:00:00 AM|12/03/2021 12:00:00 AM|12/03/2021 12:00:00 AM
96|SR21102668|CLOS|"""Sign, grnd mnted new/chang/rem"""|"""NW/MSSNG"""|"""Request entered through the Web. Refer to Intake Questions for further description."""|Dept of Trans and Eng|2021-12-03|2021-12-03|2022-03-03|"""2009 DANA AV, CINC - GJ1922536003"""|45207.0|39.1456389753608|-84.4632338471312|12/03/2021 12:00:00 AM|12/03/2021 12:00:00 AM|12/03/2021 12:00:00 AM
97|SR21102685|NEW|"""Litter, private property"""|"""LITR-PRV"""|"""GLASS EVERYWHERE, TRASH AND GARBAGE ALL OVER THE PARKING LOT AND ALL OVER THE GRASS IN THE FRONT OF PROPERTIES """|Public Services|2021-12-03|2021-12-03|2022-01-17|"""2397 WILLIAMSBURG DR - GJ1066036785 """|45225.0|39.154794098223|-84.5620291796955|12/03/2021 12:00:00 AM|12/03/2021 12:00:00 AM|12/03/2021 12:00:00 AM
98|SR21102801|NEW|"""Dumping, prv prop <2500 sq ft"""|"""DUMP-PVS"""|"""Request entered through the Web. Refer to Intake Questions for further description."""|Public Services|2021-12-03|2021-12-03|2022-01-17|"""2210 QUEBEC RD, CINC - """|45214.0|39.121981952331204|-84.56518514274491|12/03/2021 12:00:00 AM|12/03/2021 12:00:00 AM|12/03/2021 12:00:00 AM
99|SR21102618|NEW|"""Building, commercial CBHCODEC"""|"""BLD-COM"""|"""Door modifications made without permits."""|Cinc Building Dept|2021-12-03|2021-12-03|2022-06-01|"""2607 VICTORY PKWY - GJ1742933932 """|45206.0|39.1274447822098|-84.4846783376796|12/03/2021 12:00:00 AM|12/03/2021 12:00:00 AM|12/03/2021 12:00:00 AM
100|SR21102762|CLOS|"""Litter, private property"""|"""LITR-PRV"""|"""Request entered through the Web. Refer to Intake Questions for further description."""|Public Services|2021-12-03|2021-12-03|2022-01-17|"""2502 FORTHMANN PL, CINC - GJ0929634310  PRIVATE STREET"""|45211.0|39.1328380960731|-84.5785688856552|12/03/2021 12:00:00 AM|12/03/2021 12:00:00 AM|12/03/2021 12:00:00 AM
101|SR21102681|NEW|"""Litter, private property"""|"""LITR-PRV"""|"""Litter piled up in a drive way, visible from the street. Mattress, dressers, alot of construstion waste, and trash bags thats torn open. Items contains bed bugs and the rats have trash scattered through the yard."""|Public Services|2021-12-03|2021-12-03|2022-01-17|"""4114 FLOWER AV - GJ0857231252 """|45205.0|39.1054759082653|-84.5878839279418|12/03/2021 12:00:00 AM|12/03/2021 12:00:00 AM|12/03/2021 12:00:00 AM
102|SR21102797|NEW|"""Graffiti, removal"""|"""GRFITI"""|"""Request entered through the Web. Refer to Intake Questions for further description."""|Public Services|2021-12-03|2021-12-03|2022-01-02|"""1530 WILLIAM H TAFT RD, CINC - GJ1807933927"""|45206.0|39.127238239120295|-84.477158760902|12/03/2021 12:00:00 AM|12/03/2021 12:00:00 AM|12/03/2021 12:00:00 AM
103|SR21102802|NEW|"""Dumping, prv prop <2500 sq ft"""|"""DUMP-PVS"""|"""Request entered through the Web. Refer to Intake Questions for further description."""|Public Services|2021-12-03|2021-12-03|2022-01-17|"""2027 QUEBEC RD, CINC - GJ1024933100"""|45214.0|39.121716156346395|-84.5679238761767|12/03/2021 12:00:00 AM|12/03/2021 12:00:00 AM|12/03/2021 12:00:00 AM
104|SR21102946|NEW|"""Litter, private property"""|"""LITR-PRV"""|"""Request entered through the Web. Refer to Intake Questions for further description."""|Public Services|2021-12-05|2021-12-05|2022-01-19|"""1275 DEWEY AV, CINC - GJ0903832539"""|45205.0|39.1169611329439|-84.582094040119|12/05/2021 12:00:00 AM|12/05/2021 12:00:00 AM|12/05/2021 12:00:00 AM
105|SR21102935|CLOS|"""Litter, private property"""|"""LITR-PRV"""|"""Request entered through the Web. Refer to Intake Questions for further description."""|Public Services|2021-12-05|2021-12-06|2022-01-19|"""1735 WESTWOOD AV, CINC - GJ1135333490"""|45214.0|39.1249578860943|-84.5550510104033|12/05/2021 12:00:00 AM|12/06/2021 12:00:00 AM|12/06/2021 12:00:00 AM
106|SR21102885|NEW|"""Litter, private property"""|"""LITR-PRV"""|"""Request entered through the Web. Refer to Intake Questions for further description."""|Public Services|2021-12-05|2021-12-05|2022-01-19|"""2500 FERGUSON RD, CINC - GJ0743734248"""|45238.0|39.1327250303003|-84.60007947606171|12/05/2021 12:00:00 AM|12/05/2021 12:00:00 AM|12/05/2021 12:00:00 AM
107|SR21102972|CLOS|"""Sign, grnd mnted new/chang/rem"""|"""NW/MSSNG"""|"""Request entered through the Web. Refer to Intake Questions for further description."""|Dept of Trans and Eng|2021-12-05|2021-12-06|2022-03-05|"""548 CONROY ST, CINC - GJ1347433344"""|45214.0|39.1231318911626|-84.5305675650026|12/05/2021 12:00:00 AM|12/06/2021 12:00:00 AM|12/06/2021 12:00:00 AM
108|SR21102922|NEW|"""Tall grass/weeds, private prop"""|"""TLGR-PRV"""|"""Request entered through the Web. Refer to Intake Questions for further description."""|Public Services|2021-12-05|2021-12-05|2022-01-19|"""54 W MCMICKEN AV, CINC - GJ1453532855"""|45202.0|39.118519060775|-84.5184017609657|12/05/2021 12:00:00 AM|12/05/2021 12:00:00 AM|12/05/2021 12:00:00 AM
109|SR21102928|NEW|"""Litter, private property"""|"""LITR-PRV"""|"""Request entered through the Web. Refer to Intake Questions for further description."""|Public Services|2021-12-05|2021-12-05|2022-01-19|"""25 E MCMILLAN ST, CINC - """|45219.0|39.1270631610776|-84.5103292938474|12/05/2021 12:00:00 AM|12/05/2021 12:00:00 AM|12/05/2021 12:00:00 AM
110|SR21102916|NEW|"""Dumping, prv prop <2500 sq ft"""|"""DUMP-PVS"""|"""Request entered through the Web. Refer to Intake Questions for further description."""|Public Services|2021-12-05|2021-12-05|2022-01-19|"""1627 STATE AV, CINC - GJ1191632532"""|45204.0|39.1162000027214|-84.5488300741934|12/05/2021 12:00:00 AM|12/05/2021 12:00:00 AM|12/05/2021 12:00:00 AM
111|SR21102904|NEW|"""Building, illegal use res prop"""|"""BLD_USER"""|"""Request entered through the Web. Refer to Intake Questions for further description."""|Cinc Building Dept|2021-12-05|2021-12-05|2022-02-15|"""3605 DAWSON AV, CINC - """|45223.0|39.151233416561396|-84.54800642632291|12/05/2021 12:00:00 AM|12/05/2021 12:00:00 AM|12/05/2021 12:00:00 AM
112|SR21102933|CLOS|"""Litter, private property"""|"""LITR-PRV"""|"""Request entered through the Web. Refer to Intake Questions for further description."""|Public Services|2021-12-05|2021-12-06|2022-01-19|"""1735 WESTWOOD AV, CINC - GJ1135333490"""|45214.0|39.1249578860943|-84.5550510104033|12/05/2021 12:00:00 AM|12/06/2021 12:00:00 AM|12/06/2021 12:00:00 AM
113|SR21102909|NEW|"""Building, residential"""|"""BLD-RES"""|"""Request entered through the Web. Refer to Intake Questions for further description."""|Cinc Building Dept|2021-12-05|2021-12-05|2022-12-05|"""42 W MITCHELL AV, CINC - GJ1548237631"""|45217.0|39.1612338351037|-84.506001046419|12/05/2021 12:00:00 AM|12/05/2021 12:00:00 AM|12/05/2021 12:00:00 AM
114|SR21102920|CLOS|"""Dumping, prv prop <2500 sq ft"""|"""DUMP-PVS"""|"""Request entered through the Web. Refer to Intake Questions for further description."""|Public Services|2021-12-05|2021-12-06|2022-01-19|"""2105 CENTRAL AV, CINC - """|45214.0|39.1207127261645|-84.528978164769|12/05/2021 12:00:00 AM|12/06/2021 12:00:00 AM|12/06/2021 12:00:00 AM
115|SR21102891|NEW|"""Tree, trim required public"""|"""TRTRIMUF"""|"""Transfer: 12/05/2021 11:08 PM/SMOORETransfer to Parks , Tree Trim Public  - Request entered through the Web. Refer to Intake Questions for further description."""|Park Department|2021-12-05|2021-12-05|2022-12-05|"""4715 KIRBY AV, CINC - GJ1148639233"""|45223.0|39.176634887716|-84.55171065057529|12/05/2021 12:00:00 AM|12/05/2021 12:00:00 AM|12/06/2021 12:00:00 AM
116|SR21102974|NEW|"""Street sweeping"""|"""CLEAN-ST"""|"""Request entered through the Web. Refer to Intake Questions for further description."""|Public Services|2021-12-05|2021-12-05|2022-03-05|"""1314 ELAM ST, CINC - GJ1275734997"""|45225.0|39.1381855386506|-84.53834101094499|12/05/2021 12:00:00 AM|12/05/2021 12:00:00 AM|12/05/2021 12:00:00 AM
117|SR21102942|NEW|"""Parking, grass front yd res"""|"""PRKNGYRD"""|"""Request entered through the Web. Refer to Intake Questions for further description."""|Cinc Building Dept|2021-12-05|2021-12-05|2022-06-03|"""2917 BELLEVUE AV, CINC - GJ1570734546"""|45219.0|39.1334003949465|-84.5043783168805|12/05/2021 12:00:00 AM|12/05/2021 12:00:00 AM|12/05/2021 12:00:00 AM
118|SR21102936|NEW|"""Litter, private property"""|"""LITR-PRV"""|"""Request entered through the Web. Refer to Intake Questions for further description."""|Public Services|2021-12-05|2021-12-05|2022-01-19|"""217 E ROCHELLE ST, CINC - GJ1567634580"""|45219.0|39.1337183906057|-84.50472942993609|12/05/2021 12:00:00 AM|12/05/2021 12:00:00 AM|12/05/2021 12:00:00 AM
119|SR21102930|NEW|"""Parking, grass front yd res"""|"""PRKNGYRD"""|"""Request entered through the Web. Refer to Intake Questions for further description."""|Cinc Building Dept|2021-12-05|2021-12-05|2022-06-03|"""235 FOSDICK ST, CINC - GJ1574434348"""|45219.0|39.131613285845795|-84.50401707258649|12/05/2021 12:00:00 AM|12/05/2021 12:00:00 AM|12/05/2021 12:00:00 AM
120|SR21102913|NEW|"""Litter, private property"""|"""LITR-PRV"""|"""Request entered through the Web. Refer to Intake Questions for further description."""|Public Services|2021-12-05|2021-12-05|2022-01-19|"""6303 KENNEDY AV, CINC - GJ2331840486"""|45213.0|39.184954739976604|-84.4144423924109|12/05/2021 12:00:00 AM|12/05/2021 12:00:00 AM|12/05/2021 12:00:00 AM
121|SR21102926|NEW|"""Graffiti, removal"""|"""GRFITI"""|"""Request entered through the Web. Refer to Intake Questions for further description."""|Public Services|2021-12-05|2021-12-05|2022-01-04|"""1913 OHIO AV, CINC - GJ1451632894"""|45202.0|39.1188302525395|-84.5186680561531|12/05/2021 12:00:00 AM|12/05/2021 12:00:00 AM|12/05/2021 12:00:00 AM
122|SR21102864|NEW|"""Litter, private property"""|"""LITR-PRV"""|"""Request entered through the Web. Refer to Intake Questions for further description."""|Public Services|2021-12-04|2021-12-04|2022-01-18|"""3119 GLENMORE AV, CINC - """|45211.0|39.1416277029229|-84.61374356295|12/04/2021 12:00:00 AM|12/04/2021 12:00:00 AM|12/04/2021 12:00:00 AM
123|SR21102874|NEW|"""Litter, private property"""|"""LITR-PRV"""|"""Request entered through the Web. Refer to Intake Questions for further description."""|Public Services|2021-12-04|2021-12-04|2022-01-18|"""2500 FERGUSON RD, CINC - GJ0743734248"""|45238.0|39.1327250303003|-84.60007947606171|12/04/2021 12:00:00 AM|12/04/2021 12:00:00 AM|12/04/2021 12:00:00 AM
124|SR21102650|NEW|"""Litter, private property"""|"""LITR-PRV"""|"""trash and furniture all over front of property"""|Public Services|2021-12-03|2021-12-03|2022-01-17|"""3272 GOBEL AV - GJ0922235821 """|45211.0|39.1464586090131|-84.5789610204407|12/03/2021 12:00:00 AM|12/03/2021 12:00:00 AM|12/03/2021 12:00:00 AM
125|SR21102646|CLOS|"""Vehicle, abandon priv p access"""|"""ABAN-VPR"""|"""Request entered through the Web. Refer to Intake Questions for further description."""|Cinc Health Dept|2021-12-03|2021-12-06|2022-01-22|"""4754 PROSPERITY PL, CINC - GJ0778833194"""|45238.0|39.123152958430204|-84.596334791699|12/03/2021 12:00:00 AM|12/06/2021 12:00:00 AM|12/06/2021 12:00:00 AM
126|SR21102652|NEW|"""Litter, private property"""|"""LITR-PRV"""|"""trash and all over front of property"""|Public Services|2021-12-03|2021-12-03|2022-01-17|"""3246 GOBEL AV - GJ0910835727 """|45211.0|39.145637921778004|-84.5803122556324|12/03/2021 12:00:00 AM|12/03/2021 12:00:00 AM|12/03/2021 12:00:00 AM
127|SR21102829|NEW|"""Litter, private property"""|"""LITR-PRV"""|"""Request entered through the Web. Refer to Intake Questions for further description."""|Public Services|2021-12-03|2021-12-03|2022-01-17|"""730 KINGS RUN DR, CINC - GJ1444639815"""|45232.0|39.1811522595312|-84.5172826899651|12/03/2021 12:00:00 AM|12/03/2021 12:00:00 AM|12/04/2021 12:00:00 AM
128|SR21102731|NEW|"""Litter, private property"""|"""LITR-PRV"""|"""Request entered through the Web. Refer to Intake Questions for further description."""|Public Services|2021-12-03|2021-12-03|2022-01-17|"""867 BUENA VISTA PL, CINC - """|45206.0|39.13470526133379|-84.48793000005341|12/03/2021 12:00:00 AM|12/03/2021 12:00:00 AM|12/03/2021 12:00:00 AM
129|SR21102729|NEW|"""Rats in sewer, rem req"""|"""RTSNSWR"""|"""On the east side of the street, rats are seen climbing in and out of the sewer."""|Cinc Health Dept|2021-12-03|2021-12-03|2022-06-03|"""MERWIN AV & PLAINVILLE RD - GJ2637637031 """|45227.0|39.15305889640471|-84.3802492230558|12/03/2021 12:00:00 AM|12/03/2021 12:00:00 AM|12/03/2021 12:00:00 AM
130|SR21102800|NEW|"""Building, residential"""|"""BLD-RES"""|"""Request entered through the Web. Refer to Intake Questions for further description."""|Cinc Building Dept|2021-12-03|2021-12-03|2022-12-03|"""3411 MCHENRY AV, CINC - GJ0993436147"""|45211.0|39.1492280971625|-84.5706096024105|12/03/2021 12:00:00 AM|12/03/2021 12:00:00 AM|12/03/2021 12:00:00 AM
131|SR21102657|NEW|"""Litter, private property"""|"""LITR-PRV"""|"""trash all over property """|Public Services|2021-12-03|2021-12-03|2022-01-17|"""3014 BRACKEN WOODS LN - GJ0895235312 """|45211.0|39.141939555640896|-84.58224481061191|12/03/2021 12:00:00 AM|12/03/2021 12:00:00 AM|12/03/2021 12:00:00 AM
132|SR21102666|CLOS|"""Sign, grnd mnted new/chang/rem"""|"""NW/MSSNG"""|"""Request entered through the Web. Refer to Intake Questions for further description."""|Dept of Trans and Eng|2021-12-03|2021-12-03|2022-03-03|"""3638 TRIMBLE AV, CINC - GJ1900036032"""|45207.0|39.1459602187995|-84.46583152627|12/03/2021 12:00:00 AM|12/03/2021 12:00:00 AM|12/03/2021 12:00:00 AM
133|SR21102768|NEW|"""Building, residential"""|"""BLD-RES"""|"""FALLING TREE"""|Cinc Building Dept|2021-12-03|2021-12-03|2022-12-03|"""257 TWAIN AV - GJ0000132061 """|45233.0|39.114771056284205|-84.68669239301491|12/03/2021 12:00:00 AM|12/03/2021 12:00:00 AM|12/03/2021 12:00:00 AM
134|SR21102782|CLOS|"""Restaurant consult, new lic"""|"""RCNEWLIC"""|""" """|Cinc Health Dept|2021-12-03|2021-12-03|2022-06-01|"""4435 W 8TH ST - GJ0778231571 """|45238.0|39.1085398615602|-84.59691449605342|12/03/2021 12:00:00 AM|12/03/2021 12:00:00 AM|12/03/2021 12:00:00 AM
135|SR21102595|OPEN|"""Building, residential"""|"""BLD-RES"""|"""Vacate the building for failure to provide heat & hot and cold running water to occupied units."""|Cinc Building Dept|2021-12-03|2021-12-03|2022-12-03|"""2716 ANDERSON FERRY RD - GJ0624234486 """|45238.0|39.135152892438704|-84.61382750245279|12/03/2021 12:00:00 AM|12/03/2021 12:00:00 AM|12/03/2021 12:00:00 AM
136|SR21102671|NEW|"""Building, residential"""|"""BLD-RES"""|"""Request entered through the Web. Refer to Intake Questions for further description."""|Cinc Building Dept|2021-12-03|2021-12-03|2022-12-03|"""969 PURCELL AV, CINC - GJ1057131754"""|45205.0|39.1095179416925|-84.5646217817995|12/03/2021 12:00:00 AM|12/03/2021 12:00:00 AM|12/03/2021 12:00:00 AM
137|SR21102592|CLOS|"""Litter, private property"""|"""LITR-PRV"""|"""Request entered through the Web. Refer to Intake Questions for further description."""|Public Services|2021-12-03|2021-12-03|2022-01-17|"""DELHI AV & FAIRBANKS AV"""|45204.0|39.0937283226861|-84.5738855484376|12/03/2021 12:00:00 AM|12/03/2021 12:00:00 AM|12/03/2021 12:00:00 AM
138|SR21102635|NEW|"""Building, residential"""|"""BLD-RES"""|"""Living room wall plaster fell off"""|Cinc Building Dept|2021-12-03|2021-12-03|2022-12-03|"""1860 QUEEN CITY AV - GJ1088733701 """|45214.0|39.12697265983479|-84.5603706515475|12/03/2021 12:00:00 AM|12/03/2021 12:00:00 AM|12/03/2021 12:00:00 AM
139|SR21102658|NEW|"""Land/use, non-permttd use res"""|"""USE_R"""|"""drive through converted to a trucking business in CC-M zoning"""|Cinc Building Dept|2021-12-03|2021-12-03|2022-06-01|"""1979 W NORTH BEND RD - GJ1082042185 """|45224.0|39.2033655144498|-84.55850973966821|12/03/2021 12:00:00 AM|12/03/2021 12:00:00 AM|12/03/2021 12:00:00 AM
140|SR21102767|NEW|"""Tree, trim required public"""|"""TRTRIMUF"""|"""Transfer: 12/06/2021 4:41 AM/SMOORETRANSFER TO PARKS - TREE NEEDS TRIM PUBLIC  - Request entered through the Web. Refer to Intake Questions for further description."""|Park Department|2021-12-03|2021-12-06|2022-12-06|"""3334 GLENHURST PL, CINC - GJ2274036062"""|45209.0|39.1452738188091|-84.4225843591925|12/03/2021 12:00:00 AM|12/06/2021 12:00:00 AM|12/06/2021 12:00:00 AM
141|SR21102814|NEW|"""Dumping, prv prop <2500 sq ft"""|"""DUMP-PVS"""|"""Request entered through the Web. Refer to Intake Questions for further description."""|Public Services|2021-12-03|2021-12-03|2022-01-17|"""3461 WARSAW AV, CINC - GJ1026231818"""|45205.0|39.1101741640931|-84.56817323946291|12/03/2021 12:00:00 AM|12/03/2021 12:00:00 AM|12/03/2021 12:00:00 AM
142|SR21102610|NEW|"""Litter, private property"""|"""LITR-PRV"""|"""EXCESSIVE TRASH & FURNITURE ON PROPERTY"""|Public Services|2021-12-03|2021-12-03|2022-01-17|"""2670 LEHMAN RD - GJ1170732567 """|45214.0|39.1165638092871|-84.55124150433001|12/03/2021 12:00:00 AM|12/03/2021 12:00:00 AM|12/03/2021 12:00:00 AM
143|SR21102720|NEW|"""Litter, private property"""|"""LITR-PRV"""|"""TRASH ON VACANT LOT"""|Public Services|2021-12-03|2021-12-03|2022-01-17|"""260 W MCMICKEN AV - GJ1410733017 """|45214.0|39.1200254309171|-84.5233632037159|12/03/2021 12:00:00 AM|12/03/2021 12:00:00 AM|12/03/2021 12:00:00 AM
144|SR21102789|NEW|"""Litter, private property"""|"""LITR-PRV"""|"""Request entered through the Web. Refer to Intake Questions for further description."""|Public Services|2021-12-03|2021-12-03|2022-01-17|"""1140 REGENT AV, CINC - GJ1781939470"""|45237.0|39.1772028970821|-84.47838462667809|12/03/2021 12:00:00 AM|12/03/2021 12:00:00 AM|12/03/2021 12:00:00 AM
145|SR21102733|CLOS|"""Service complaint, yardwaste"""|"""SVCCMPLY"""|"""CITIZEN STATES SHE HAS TO CALL EVERY WEEK SINCE YARD WASTE STARTED TO BE COLLECTED. SAYS YARD WASTE IS STILL AT CURB SINCE MONDAY """|Public Services|2021-12-03|2021-12-06|2022-01-02|"""6520 GRACELY DR - FJ9963731633 """|45233.0|39.1109953090169|-84.6910204081239|12/03/2021 12:00:00 AM|12/06/2021 12:00:00 AM|12/06/2021 12:00:00 AM
146|SR21102817|NEW|"""Dumping, prv prop <2500 sq ft"""|"""DUMP-PVS"""|"""Request entered through the Web. Refer to Intake Questions for further description."""|Public Services|2021-12-03|2021-12-03|2022-01-17|"""3436 PRICE AV, CINC - GJ1034431515"""|45205.0|39.107429580022995|-84.5673029398019|12/03/2021 12:00:00 AM|12/03/2021 12:00:00 AM|12/03/2021 12:00:00 AM
147|SR21102721|NEW|"""Building, residential"""|"""BLD-RES"""|"""holes in foundation"""|Cinc Building Dept|2021-12-03|2021-12-03|2022-12-03|"""2556 A RING PL - GJ1116532033 """|45204.0|39.1118824628396|-84.5576795149185|12/03/2021 12:00:00 AM|12/03/2021 12:00:00 AM|12/03/2021 12:00:00 AM
148|SR21102761|CLOS|"""Litter, private property"""|"""LITR-PRV"""|"""Request entered through the Web. Refer to Intake Questions for further description."""|Public Services|2021-12-03|2021-12-03|2022-01-17|"""2502 FORTHMANN PL, CINC - GJ0929634310  PRIVATE STREET"""|45211.0|39.1328380960731|-84.5785688856552|12/03/2021 12:00:00 AM|12/03/2021 12:00:00 AM|12/03/2021 12:00:00 AM
149|SR21102628|OPEN|"""Litter, private property"""|"""LITR-PRV"""|"""Request entered through the Web. Refer to Intake Questions for further description."""|Public Services|2021-12-03|2021-12-03|2022-01-17|"""2363 ST JAMES AV, CINC - GJ1698533600"""|45206.0|39.12457036439|-84.4899070665211|12/03/2021 12:00:00 AM|12/03/2021 12:00:00 AM|12/03/2021 12:00:00 AM
150|SR21102818|NEW|"""Litter, private property"""|"""LITR-PRV"""|"""Request entered through the Web. Refer to Intake Questions for further description."""|Public Services|2021-12-03|2021-12-03|2022-01-17|"""831 WELLS ST, CINC - GJ1012431467"""|45205.0|39.1070485332991|-84.5698790838754|12/03/2021 12:00:00 AM|12/03/2021 12:00:00 AM|12/03/2021 12:00:00 AM
151|SR21102778|CLOS|"""Sign, grnd mnted new/chang/rem"""|"""NW/MSSNG"""|"""Request entered through the Web. Refer to Intake Questions for further description."""|Dept of Trans and Eng|2021-12-03|2021-12-06|2022-03-03|"""2315 PARK AV, CINC - GJ1724033397"""|45206.0|39.1226780816434|-84.4870294346818|12/03/2021 12:00:00 AM|12/06/2021 12:00:00 AM|12/06/2021 12:00:00 AM
152|SR21102804|NEW|"""Litter, private property"""|"""LITR-PRV"""|"""Request entered through the Web. Refer to Intake Questions for further description."""|Public Services|2021-12-03|2021-12-03|2022-01-17|"""4222 GLENWAY AV, CINC - GJ0886432281"""|45205.0|39.114671466149204|-84.58418731914821|12/03/2021 12:00:00 AM|12/03/2021 12:00:00 AM|12/03/2021 12:00:00 AM
153|SR21102639|NEW|"""Mold, building or apartment"""|"""MOLD"""|"""Mold growing on the ceiling over the bath tub. Water damage is happening around the front door entrance, there is a water leak, unknown source for the leak. The bathroom walls is showing signs of mold growth as well."""|Cinc Health Dept|2021-12-03|2021-12-03|2022-06-01|"""400 W 9TH ST - GJ1437031306 """|45203.0|39.104557609370204|-84.5208668381101|12/03/2021 12:00:00 AM|12/03/2021 12:00:00 AM|12/03/2021 12:00:00 AM
154|SR21102606|CLOS|"""Litter, private property"""|"""LITR-PRV"""|"""Request entered through the Web. Refer to Intake Questions for further description."""|Public Services|2021-12-03|2021-12-03|2022-01-17|"""847 HUTCHINS AV, CINC - GJ1719435851"""|45229.0|39.144776753954396|-84.48676526687291|12/03/2021 12:00:00 AM|12/03/2021 12:00:00 AM|12/03/2021 12:00:00 AM
155|SR21102709|NEW|"""Mold, building or apartment"""|"""MOLD"""|"""MOLD IN KITCHEN & BED ROOM. AQUA PROPERTIES 584-4040"""|Cinc Health Dept|2021-12-03|2021-12-03|2022-06-01|"""3246 GOBEL AV - GJ0910835727 """|45211.0|39.145637921778004|-84.5803122556324|12/03/2021 12:00:00 AM|12/03/2021 12:00:00 AM|12/03/2021 12:00:00 AM
156|SR21102703|NEW|"""Litter, private property"""|"""LITR-PRV"""|"""Request entered through the Web. Refer to Intake Questions for further description."""|Public Services|2021-12-03|2021-12-03|2022-01-17|"""745 DELHI AV, CINC - GJ1000529781"""|45204.0|39.0918958853364|-84.5717698556913|12/03/2021 12:00:00 AM|12/03/2021 12:00:00 AM|12/03/2021 12:00:00 AM
157|SR21102741|NEW|"""Tall grass/weeds, private prop"""|"""TLGR-PRV"""|"""tall grass"""|Public Services|2021-12-03|2021-12-03|2022-01-17|"""736 CLANORA DR - GJ0839331258 """|45205.0|39.1055760004683|-84.5899489858582|12/03/2021 12:00:00 AM|12/03/2021 12:00:00 AM|12/03/2021 12:00:00 AM
158|SR21102803|NEW|"""Dumping, prv prop <2500 sq ft"""|"""DUMP-PVS"""|"""Request entered through the Web. Refer to Intake Questions for further description."""|Public Services|2021-12-03|2021-12-03|2022-01-17|"""4033 W LIBERTY ST, CINC - GJ0916432551"""|45205.0|39.117031313756|-84.580633034368|12/03/2021 12:00:00 AM|12/03/2021 12:00:00 AM|12/03/2021 12:00:00 AM
159|SR21102656|NEW|"""Land/use, non-permttd use res"""|"""USE_R"""|"""Commercial trucks parked on residential lot"""|Cinc Building Dept|2021-12-03|2021-12-03|2022-06-01|"""1967 W NORTH BEND RD - GJ1087742184 """|45224.0|39.20334171995879|-84.5578383779757|12/03/2021 12:00:00 AM|12/03/2021 12:00:00 AM|12/03/2021 12:00:00 AM
160|SR21102816|NEW|"""Litter, private property"""|"""LITR-PRV"""|"""Request entered through the Web. Refer to Intake Questions for further description."""|Public Services|2021-12-03|2021-12-03|2022-01-17|"""751 FAIRBANKS AV, CINC - GJ1019331305"""|45205.0|39.1055733595006|-84.5691306919357|12/03/2021 12:00:00 AM|12/03/2021 12:00:00 AM|12/03/2021 12:00:00 AM
161|SR21102788|NEW|"""Building, residential"""|"""BLD-RES"""|"""Mold growth in the bathtub, tiles are missing or is falling off the walls in the bathroom. Problems with mice. No working light in the kitchen, and no lights in any of the hallways."""|Cinc Building Dept|2021-12-03|2021-12-03|2022-12-03|"""308 WILLIAMSBURG CT - GJ1723343634 """|45215.0|39.214830336914204|-84.4838292100501|12/03/2021 12:00:00 AM|12/03/2021 12:00:00 AM|12/03/2021 12:00:00 AM
162|SR21102781|NEW|"""Litter, private property"""|"""LITR-PRV"""|"""Request entered through the Web. Refer to Intake Questions for further description."""|Public Services|2021-12-03|2021-12-03|2022-01-17|"""4535 RED BANK RD, CINC - GJ2434637328"""|45227.0|39.156256214603296|-84.403604387898|12/03/2021 12:00:00 AM|12/03/2021 12:00:00 AM|12/03/2021 12:00:00 AM
163|SR21102660|NEW|"""Encroachment, object in ROW"""|"""NCRHMNT,"""|"""Request entered through the Web. Refer to Intake Questions for further description."""|Dept of Trans and Eng|2021-12-03|2021-12-03|2022-01-02|"""3322 BISHOP ST, CINC - GJ1499135394"""|45220.0|39.1412095257256|-84.5123877907695|12/03/2021 12:00:00 AM|12/03/2021 12:00:00 AM|12/03/2021 12:00:00 AM
164|SR21102774|NEW|"""Litter, private property"""|"""LITR-PRV"""|"""Request entered through the Web. Refer to Intake Questions for further description."""|Public Services|2021-12-03|2021-12-03|2022-01-17|"""3521 ZINSLE AV, CINC - GJ2326940557"""|45213.0|39.185613164768|-84.41498259458191|12/03/2021 12:00:00 AM|12/03/2021 12:00:00 AM|12/03/2021 12:00:00 AM
165|SR21102707|NEW|"""Building, residential"""|"""BLD-RES"""|"""Water damage to living room wall and 1st bedroom and kitchen."""|Cinc Building Dept|2021-12-03|2021-12-03|2022-12-03|"""2140 SELIM AV - GJ1167933109 """|45214.0|39.1214468268706|-84.55139803284341|12/03/2021 12:00:00 AM|12/03/2021 12:00:00 AM|12/03/2021 12:00:00 AM
166|SR21102420|NEW|"""Building, vacant and open res """|"""BLD_VACR"""|"""Reissue of B202005582 to new owner"""|Cinc Building Dept|2021-12-02|2021-12-02|2022-02-12|"""533 ROCKDALE AV - GJ1638035797 """|45229.0|39.1444937021041|-84.49620909180429|12/02/2021 12:00:00 AM|12/02/2021 12:00:00 AM|12/02/2021 12:00:00 AM
167|SR21102509|NEW|"""Building, residential"""|"""BLD-RES"""|"""Reissue of B202101297 to new owner"""|Cinc Building Dept|2021-12-02|2021-12-02|2022-12-02|"""1345 BEECH AV - GJ0946832726 """|45205.0|39.118531572178|-84.5770707552262|12/02/2021 12:00:00 AM|12/02/2021 12:00:00 AM|12/02/2021 12:00:00 AM
168|SR21102375|CLOS|"""Litter, private property"""|"""LITR-PRV"""|"""Request entered through the Web. Refer to Intake Questions for further description."""|Public Services|2021-12-02|2021-12-03|2022-01-16|"""3024 KERPER AV, CINC - """|45206.0|39.1357969309018|-84.4876893348627|12/02/2021 12:00:00 AM|12/03/2021 12:00:00 AM|12/03/2021 12:00:00 AM
169|SR21102463|CLOS|"""Heat, no heat hazard"""|"""HEAT"""|"""ALL EELECTRIC IS OUT- WILL NEED FLASH LIGHT """|Cinc Health Dept|2021-12-02|2021-12-06|2022-05-31|"""6020 DAHLGREN ST - GJ2544538545 """|45227.0|39.1669337137375|-84.3905054127997|12/02/2021 12:00:00 AM|12/06/2021 12:00:00 AM|12/06/2021 12:00:00 AM
170|SR21102491|NEW|"""Tall grass/weeds, private prop"""|"""TLGR-PRV"""|"""Request entered through the Web. Refer to Intake Questions for further description."""|Public Services|2021-12-02|2021-12-02|2022-01-16|"""5600 GLENWAY AV, CINC - """|45238.0|39.1323611932135|-84.61088727489921|12/02/2021 12:00:00 AM|12/02/2021 12:00:00 AM|12/02/2021 12:00:00 AM
171|SR21102436|OPEN|"""Litter, private property"""|"""LITR-PRV"""|"""Request entered through the Web. Refer to Intake Questions for further description."""|Public Services|2021-12-02|2021-12-02|2022-01-16|"""1028 MCPHERSON AV, CINC - """|45205.0|39.11153055542871|-84.57019076909309|12/02/2021 12:00:00 AM|12/02/2021 12:00:00 AM|12/02/2021 12:00:00 AM
172|SR21102244|CLOS|"""Litter, private property"""|"""LITR-PRV"""|"""Request entered through the Web. Refer to Intake Questions for further description."""|Public Services|2021-12-02|2021-12-02|2022-01-16|"""847 HUTCHINS AV, CINC - GJ1719435851"""|45229.0|39.144776753954396|-84.48676526687291|12/02/2021 12:00:00 AM|12/02/2021 12:00:00 AM|12/02/2021 12:00:00 AM
173|SR21102330|OPEN|"""Mold, building or apartment"""|"""MOLD"""|"""ALL OVER DUE TO ROOF LEAK """|Cinc Health Dept|2021-12-02|2021-12-03|2022-05-31|"""2550 A HARRISON AV - GJ0873835372 """|45211.0|39.1425298607695|-84.58469930072799|12/02/2021 12:00:00 AM|12/03/2021 12:00:00 AM|12/03/2021 12:00:00 AM
174|SR21102287|CLOS|"""Dumping, prv prop <2500 sq ft"""|"""DUMP-PVS"""|"""Request entered through the Web. Refer to Intake Questions for further description."""|Public Services|2021-12-02|2021-12-02|2022-01-16|"""811 GLENWOOD AV, CINC - GJ1704736136"""|45229.0|39.1473827881844|-84.4883801893025|12/02/2021 12:00:00 AM|12/02/2021 12:00:00 AM|12/02/2021 12:00:00 AM
175|SR21102247|OPEN|"""Mold, building or apartment"""|"""MOLD"""|"""MOLD IN CARPET   LAUNDRY ROOM FLOODED UNIT"""|Cinc Health Dept|2021-12-02|2021-12-02|2022-05-31|"""898 WALNUT ST - GJ1511631420 """|45202.0|39.1054002309202|-84.51221636041471|12/02/2021 12:00:00 AM|12/02/2021 12:00:00 AM|12/02/2021 12:00:00 AM
176|SR21102322|CLOS|"""Sign Removable Attached"""|"""SIGNREMV"""|"""Sign"""|Law Department|2021-12-02|2021-12-02|2022-12-02|"""50 W 5TH ST - GJ1501130959 """|45202.0|39.101279199155606|-84.5135682615152|12/02/2021 12:00:00 AM|12/02/2021 12:00:00 AM|12/02/2021 12:00:00 AM
177|SR21102547|CLOS|"""Litter, private property"""|"""LITR-PRV"""|"""Dumpster in front of building is overflowing with trash. Trash is all over the parking lot."""|Public Services|2021-12-02|2021-12-03|2022-01-16|"""946 BURTON AV - GJ1746836526 """|45229.0|39.1507856183915|-84.4834009269065|12/02/2021 12:00:00 AM|12/03/2021 12:00:00 AM|12/03/2021 12:00:00 AM
178|SR21102543|NEW|"""Building, residential"""|"""BLD-RES"""|"""front porch is about to collapse and someone lives in this home"""|Cinc Building Dept|2021-12-02|2021-12-02|2022-12-02|"""2017 HEWITT AV - GJ1911135006 """|45207.0|39.1366908968759|-84.464891774579|12/02/2021 12:00:00 AM|12/02/2021 12:00:00 AM|12/02/2021 12:00:00 AM
179|SR21102433|OPEN|"""Litter, private property"""|"""LITR-PRV"""|"""Request entered through the Web. Refer to Intake Questions for further description."""|Public Services|2021-12-02|2021-12-02|2022-01-16|"""3920 CASS AV, CINC - GJ1137337204"""|45223.0|39.1583920852484|-84.55365801653559|12/02/2021 12:00:00 AM|12/02/2021 12:00:00 AM|12/02/2021 12:00:00 AM
180|SR21102304|CLOS|"""Service compliment, cust serv"""|"""SRVCMPCS"""|"""Mr. Stone please give citizen a call back. SR21102105 was closed out as collected, but the citizen says the YW can is still full...."""|Public Services|2021-12-02|2021-12-02|2022-01-01|"""2685 GRANDIN PL - GJ2142433573 PRIVATE STREET"""|45208.0|39.1232012422715|-84.4386221447175|12/02/2021 12:00:00 AM|12/02/2021 12:00:00 AM|12/02/2021 12:00:00 AM
181|SR21102233|CLOS|"""Tall grass/weeds, private prop"""|"""TLGR-PRV"""|"""Transfer: 12/02/2021 9:41 AM/LMJOHNSONTRANSFERRED TO LITTER - Request entered through the Web. Refer to Intake Questions for further description."""|Public Services|2021-12-02|2021-12-02|2022-01-16|"""1566 SECTION RD, CINC - GJ1921541834"""|45237.0|39.1981367779601|-84.4614679767112|12/02/2021 12:00:00 AM|12/02/2021 12:00:00 AM|12/02/2021 12:00:00 AM
182|SR21102444|OPEN|"""Litter, private property"""|"""LITR-PRV"""|"""Request entered through the Web. Refer to Intake Questions for further description."""|Public Services|2021-12-02|2021-12-02|2022-01-16|"""3910 CASS AV, CINC - GJ1137137166"""|45223.0|39.1580509636056|-84.5536903803124|12/02/2021 12:00:00 AM|12/02/2021 12:00:00 AM|12/02/2021 12:00:00 AM
183|SR21102275|NEW|"""Building, residential"""|"""BLD-RES"""|"""Issue vacate for illegally occupied building"""|Cinc Building Dept|2021-12-02|2021-12-02|2022-12-02|"""2159 SELIM AV - GJ1162633172 """|45214.0|39.12202950569|-84.5519932487101|12/02/2021 12:00:00 AM|12/02/2021 12:00:00 AM|12/02/2021 12:00:00 AM
184|SR21102306|NEW|"""Parking, grass front yd res"""|"""PRKNGYRD"""|"""Request entered through the Web. Refer to Intake Questions for further description."""|Cinc Building Dept|2021-12-02|2021-12-02|2022-05-31|"""4664 LINDA DR, CINC - GJ0813232192"""|45238.0|39.1140461215426|-84.5926754794867|12/02/2021 12:00:00 AM|12/02/2021 12:00:00 AM|12/02/2021 12:00:00 AM
185|SR21102566|OPEN|"""Sidewalk, repair haz"""|"""SIDWLKH"""|"""Request entered through the Web. Refer to Intake Questions for further description."""|Dept of Trans and Eng|2021-12-02|2021-12-03|2022-05-31|"""526 RACE ST, CINC - """|45202.0|39.101787496681204|-84.5146613625722|12/02/2021 12:00:00 AM|12/03/2021 12:00:00 AM|12/03/2021 12:00:00 AM
186|SR21102310|CLOS|"""Service complaint, yardwaste"""|"""SVCCMPLY"""|"""Transfer: 12/2/2021 9:53 AM/JPRESNELLRTC-MISSED COLLECTIONS 12/01/2021. MR. STONE PLEASE RESPOND. - RTC-missed collection, 12/01/2021, MR. STONE PLEASE RESPOND."""|Public Services|2021-12-02|2021-12-03|2022-01-01|"""2685 GRANDIN PL - GJ2142433573 PRIVATE STREET"""|45208.0|39.1232012422715|-84.4386221447175|12/02/2021 12:00:00 AM|12/03/2021 12:00:00 AM|12/03/2021 12:00:00 AM
187|SR21102428|OPEN|"""Sidewalk, Obstructions"""|"""ADASDWKO"""|"""Transfer: 12/02/2021 1:36 PM/SSITTASONPRIVATE PROP BUSH ENCROACHING  - Request entered through the Web. Refer to Intake Questions for further description."""|Dept of Trans and Eng|2021-12-02|2021-12-02|2022-05-31|"""1263 W GALBRAITH RD, CINC - GJ1282543656"""|45231.0|39.216125229891894|-84.53482728407829|12/02/2021 12:00:00 AM|12/02/2021 12:00:00 AM|12/02/2021 12:00:00 AM
188|SR21102489|CLOS|"""Plumbing, defective"""|"""PLMB_DEF"""|"""TOILET, SINK AND TUB STOPPED UP """|Cinc Health Dept|2021-12-02|2021-12-06|2022-05-31|"""5130 READING RD - GJ1892539727 """|45237.0|39.1792368908091|-84.465520427967|12/02/2021 12:00:00 AM|12/06/2021 12:00:00 AM|12/06/2021 12:00:00 AM
189|SR21102278|OPEN|"""Building, residential"""|"""BLD-RES"""|"""Reissue of B2021806100 to update conditions."""|Cinc Building Dept|2021-12-02|2021-12-06|2022-12-02|"""3564 EDEN AV - GJ1574936139 """|45229.0|39.1477257927304|-84.5033936037693|12/02/2021 12:00:00 AM|12/06/2021 12:00:00 AM|12/06/2021 12:00:00 AM
190|SR21102434|OPEN|"""Litter, private property"""|"""LITR-PRV"""|"""Request entered through the Web. Refer to Intake Questions for further description."""|Public Services|2021-12-02|2021-12-02|2022-01-16|"""3914 CASS AV, CINC - GJ1137237181"""|45223.0|39.1581885227286|-84.5536767617762|12/02/2021 12:00:00 AM|12/02/2021 12:00:00 AM|12/02/2021 12:00:00 AM
191|SR21102367|NEW|"""Roaches - bldg or apartment"""|"""ROACHES"""|"""Roaches and water nats have infested this apartment. There might be a case of mold.growth inside a wall where there is a revious pipe that had busted."""|Cinc Health Dept|2021-12-02|2021-12-02|2022-05-31|"""2829 QUEEN CITY AV - GJ0769234428 """|45238.0|39.1342816256706|-84.5970791735083|12/02/2021 12:00:00 AM|12/02/2021 12:00:00 AM|12/02/2021 12:00:00 AM
192|SR21102455|CLOS|"""Tall grass/weeds, PS property"""|"""TLGR-PS"""|"""ROW CUT """|Public Services|2021-12-02|2021-12-02|2022-01-31|"""REVERE AV & TWAIN AV - FJ9971531803 """|45233.0|39.1125128467263|-84.69007000075099|12/02/2021 12:00:00 AM|12/02/2021 12:00:00 AM|12/02/2021 12:00:00 AM
193|SR21102352|OPEN|"""Litter, private property"""|"""LITR-PRV"""|"""litter and trash all over yard and is going into neighbors yard """|Public Services|2021-12-02|2021-12-03|2022-01-16|"""3618 BEVIS AV - GJ1910335936 """|45207.0|39.1450624491021|-84.4646813715777|12/02/2021 12:00:00 AM|12/03/2021 12:00:00 AM|12/03/2021 12:00:00 AM
194|SR21102297|NEW|"""Plumbing, defective"""|"""PLMB_DEF"""|"""WATER COMING FROM UNDER KITCHEN FLOOR  CAUSING GNAT INFESTATION"""|Cinc Health Dept|2021-12-02|2021-12-02|2022-05-31|"""2446 WILLIAMSBURG DR - GJ1076536895 """|45225.0|39.155755428587604|-84.56078750728379|12/02/2021 12:00:00 AM|12/02/2021 12:00:00 AM|12/02/2021 12:00:00 AM
195|SR21102442|NEW|"""Parking, grass front yd res"""|"""PRKNGYRD"""|"""Request entered through the Web. Refer to Intake Questions for further description."""|Cinc Building Dept|2021-12-02|2021-12-02|2022-05-31|"""4748 SPRING GROVE AV, CINC - GJ1473638107"""|45232.0|39.1657007094384|-84.5144790331519|12/02/2021 12:00:00 AM|12/02/2021 12:00:00 AM|12/02/2021 12:00:00 AM
196|SR21102413|OPEN|"""Plumbing, defective"""|"""PLMB_DEF"""|"""WATER/FOOD FROM OTHER APTS BACKING UP INTO THIS UNIT"""|Cinc Health Dept|2021-12-02|2021-12-03|2022-05-31|"""757 RIDGEWAY AV - GJ1674435183 """|45229.0|39.1388751119552|-84.49219508267801|12/02/2021 12:00:00 AM|12/03/2021 12:00:00 AM|12/03/2021 12:00:00 AM
197|SR21102573|NEW|"""Unsanitary living conditions"""|"""BD_UNSAN"""|"""Request entered through the Web. Refer to Intake Questions for further description."""|Cinc Health Dept|2021-12-02|2021-12-02|2022-05-31|"""933 PURCELL AV, CINC - GJ1057331636"""|45205.0|39.1084631299874|-84.564633121191|12/02/2021 12:00:00 AM|12/02/2021 12:00:00 AM|12/02/2021 12:00:00 AM
198|SR21102432|CLOS|"""Rats, problem/infestation"""|"""RATS"""|"""INSIDE AND OUT """|Cinc Health Dept|2021-12-02|2021-12-06|2022-05-31|"""3342 SPOKANE AV - GJ1862635217 """|45207.0|39.1387114605386|-84.4704354595257|12/02/2021 12:00:00 AM|12/06/2021 12:00:00 AM|12/06/2021 12:00:00 AM
199|SR21102401|CLOS|"""Litter, private property"""|"""LITR-PRV"""|"""Request entered through the Web. Refer to Intake Questions for further description."""|Public Services|2021-12-02|2021-12-03|2022-01-16|"""3003 KERPER AV, CINC - """|45206.0|39.135167691246295|-84.4886694980177|12/02/2021 12:00:00 AM|12/03/2021 12:00:00 AM|12/03/2021 12:00:00 AM
200|SR21102336|NEW|"""Building, residential"""|"""BLD-RES"""|"""Exterior violations"""|Cinc Building Dept|2021-12-02|2021-12-02|2022-12-02|"""1763 WESTWOOD AV - GJ1124633494 """|45214.0|39.1250211042012|-84.5562869157449|12/02/2021 12:00:00 AM|12/02/2021 12:00:00 AM|12/02/2021 12:00:00 AM
201|SR21102441|OPEN|"""Litter, private property"""|"""LITR-PRV"""|"""Request entered through the Web. Refer to Intake Questions for further description."""|Public Services|2021-12-02|2021-12-02|2022-01-16|"""3912 CASS AV, CINC - GJ1137137174"""|45223.0|39.1581197119475|-84.5536853339078|12/02/2021 12:00:00 AM|12/02/2021 12:00:00 AM|12/02/2021 12:00:00 AM
202|SR21102344|OPEN|"""Litter, private property"""|"""LITR-PRV"""|"""9 TRASH BAGS AT CURB SINCE TUESDAY """|Public Services|2021-12-02|2021-12-03|2022-01-16|"""8351 WOODBINE AV - GJ1867343586 """|45216.0|39.214042634482496|-84.4671828810036|12/02/2021 12:00:00 AM|12/03/2021 12:00:00 AM|12/03/2021 12:00:00 AM
203|SR21102215|CLOS|"""Guardrail, repair"""|"""GUARDR"""|"""PER 421- GUARDRAIL STICKING OUT IN BIKE LANE """|Public Services|2021-12-02|2021-12-03|2022-01-01|"""1450 RIVERSIDE DR - GJ1709232267 """|45202.0|39.1125387503982|-84.4891048728502|12/02/2021 12:00:00 AM|12/03/2021 12:00:00 AM|12/03/2021 12:00:00 AM
204|SR21102470|NEW|"""Food operation, unsanitry cond"""|"""FOOD_RES"""|"""APPEARS TO BE MOLD ON AIR VENTS """|Cinc Health Dept|2021-12-02|2021-12-02|2022-05-31|"""3364 MADISON RD - GJ2258937410 """|45209.0|39.1574454272513|-84.4239014150327|12/02/2021 12:00:00 AM|12/02/2021 12:00:00 AM|12/02/2021 12:00:00 AM
205|SR21102295|OPEN|"""Building, residential"""|"""BLD-RES"""|"""Request entered through the Web. Refer to Intake Questions for further description."""|Cinc Building Dept|2021-12-02|2021-12-02|2022-12-02|"""31 E MCMILLAN ST, CINC - GJ1523933825"""|45219.0|39.1270246198005|-84.510017909299|12/02/2021 12:00:00 AM|12/02/2021 12:00:00 AM|12/02/2021 12:00:00 AM
206|SR21102531|OPEN|"""Mold, building or apartment"""|"""MOLD"""|"""MOLD ON CEILINGS AND OTHER PARTS OF THE HOUSE """|Cinc Health Dept|2021-12-02|2021-12-06|2022-05-31|"""3995 WESS PARK DR - GJ1602837579 """|45217.0|39.1606228627857|-84.499715030322|12/02/2021 12:00:00 AM|12/06/2021 12:00:00 AM|12/06/2021 12:00:00 AM
207|SR21102513|CLOS|"""Dumping, prv prop <2500 sq ft"""|"""DUMP-PVS"""|"""Request entered through the Web. Refer to Intake Questions for further description."""|Public Services|2021-12-02|2021-12-03|2022-01-16|"""8338 WOODBINE AV, CINC - GJ1871843536"""|45216.0|39.21358728458179|-84.4666653017174|12/02/2021 12:00:00 AM|12/03/2021 12:00:00 AM|12/03/2021 12:00:00 AM
208|SR21102446|OPEN|"""Litter, private property"""|"""LITR-PRV"""|"""Request entered through the Web. Refer to Intake Questions for further description."""|Public Services|2021-12-02|2021-12-02|2022-01-16|"""3908 CASS AV, CINC - GJ1137037158"""|45223.0|39.1579821528225|-84.5536989524139|12/02/2021 12:00:00 AM|12/02/2021 12:00:00 AM|12/02/2021 12:00:00 AM
209|SR21102504|OPEN|"""Mold, building or apartment"""|"""MOLD"""|"""MOLD IN ENTIRE UNIT RESIDENT STATES CEILING LEAK =REF TO BUILDING"""|Cinc Health Dept|2021-12-02|2021-12-03|2022-05-31|"""2550 A HARRISON AV - GJ0873835372 """|45211.0|39.1425298607695|-84.58469930072799|12/02/2021 12:00:00 AM|12/03/2021 12:00:00 AM|12/03/2021 12:00:00 AM
210|SR21102280|NEW|"""Building, vacant and open res """|"""BLD_VACR"""|"""Reissue of B202001277 to new owner."""|Cinc Building Dept|2021-12-02|2021-12-02|2022-02-12|"""3537 MAGILL AV - GJ1740435915 """|45229.0|39.1452962176448|-84.4843358502284|12/02/2021 12:00:00 AM|12/02/2021 12:00:00 AM|12/02/2021 12:00:00 AM
211|SR21102424|OPEN|"""Litter, private property"""|"""LITR-PRV"""|"""Request entered through the Web. Refer to Intake Questions for further description."""|Public Services|2021-12-02|2021-12-02|2022-01-16|"""3916 CASS AV, CINC - GJ1137037188"""|45223.0|39.1582514065519|-84.5536927092691|12/02/2021 12:00:00 AM|12/02/2021 12:00:00 AM|12/02/2021 12:00:00 AM
212|SR21102279|NEW|"""Traffic island repair,non land"""|"""TRFFCSLN"""|"""TRAFFIC ISLAND BROKEN UP DUE TO ACCIDENT @ 8 48A"""|Public Services|2021-12-02|2021-12-02|2022-05-31|"""4747 SPRING GROVE AV - GJ1460338108 """|45232.0|39.165737067845505|-84.5160217616438|12/02/2021 12:00:00 AM|12/02/2021 12:00:00 AM|12/02/2021 12:00:00 AM
213|SR21102575|OPEN|"""Sidewalk, repair haz"""|"""SIDWLKH"""|"""Request entered through the Web. Refer to Intake Questions for further description."""|Dept of Trans and Eng|2021-12-02|2021-12-03|2022-05-31|"""1207 REPUBLIC ST, CINC - """|45202.0|39.1084727333776|-84.5157305692794|12/02/2021 12:00:00 AM|12/03/2021 12:00:00 AM|12/03/2021 12:00:00 AM
214|SR21102481|NEW|"""Mold, building or apartment"""|"""MOLD"""|"""PER EXTERNAL EMAIL. - BTHRM"""|Cinc Health Dept|2021-12-02|2021-12-02|2022-05-31|"""2212 FULTON AV - GJ1686833217 """|45206.0|39.1211476353415|-84.49139322757749|12/02/2021 12:00:00 AM|12/02/2021 12:00:00 AM|12/02/2021 12:00:00 AM
215|SR21102578|CLOS|"""Litter, private property"""|"""LITR-PRV"""|"""Request entered through the Web. Refer to Intake Questions for further description."""|Public Services|2021-12-02|2021-12-03|2022-01-16|"""847 HUTCHINS AV, CINC - GJ1719435851"""|45229.0|39.144776753954396|-84.48676526687291|12/02/2021 12:00:00 AM|12/03/2021 12:00:00 AM|12/03/2021 12:00:00 AM
216|SR21102447|OPEN|"""Litter, private property"""|"""LITR-PRV"""|"""Request entered through the Web. Refer to Intake Questions for further description."""|Public Services|2021-12-02|2021-12-02|2022-01-16|"""3906 CASS AV, CINC - """|45223.0|39.157918831915296|-84.5537076849013|12/02/2021 12:00:00 AM|12/02/2021 12:00:00 AM|12/02/2021 12:00:00 AM
217|SR21102515|CLOS|"""Vehicle, abandon priv p access"""|"""ABAN-VPR"""|"""Request entered through the Web. Refer to Intake Questions for further description."""|Cinc Health Dept|2021-12-02|2021-12-03|2022-01-21|"""968 WOODBRIAR LN, CINC - GJ0677232021"""|45238.0|39.1128375210769|-84.6084434816593|12/02/2021 12:00:00 AM|12/03/2021 12:00:00 AM|12/03/2021 12:00:00 AM
218|SR21102468|NEW|"""Dumping, prv prop <2500 sq ft"""|"""DUMP-PVS"""|"""Request entered through the Web. Refer to Intake Questions for further description."""|Public Services|2021-12-02|2021-12-02|2022-01-16|"""7 FOX ST, CINC - """|45219.0|39.1239059294072|-84.52525538061221|12/02/2021 12:00:00 AM|12/02/2021 12:00:00 AM|12/02/2021 12:00:00 AM
219|SR21102425|NEW|"""Mice, building has mice"""|"""MICE-BLD"""|"""MICE"""|Cinc Health Dept|2021-12-02|2021-12-02|2022-05-31|"""704 DERRICK TURNBOW AV - GJ1390032043 """|45214.0|39.1113079746713|-84.52606651815229|12/02/2021 12:00:00 AM|12/02/2021 12:00:00 AM|12/02/2021 12:00:00 AM
220|SR21102487|CLOS|"""Litter, private property"""|"""LITR-PRV"""|"""TRASH OVER PROPERTY"""|Public Services|2021-12-02|2021-12-03|2022-01-16|"""2988 W MCMICKEN AV - GJ1333934958 """|45225.0|39.137685356118496|-84.53163322009699|12/02/2021 12:00:00 AM|12/03/2021 12:00:00 AM|12/03/2021 12:00:00 AM
221|SR21102406|NEW|"""Heat, no heat hazard"""|"""HEAT"""|"""NO HEAT IN APT. FOR 2 WEEKS"""|Cinc Health Dept|2021-12-02|2021-12-02|2022-05-31|"""843 DELEHANTY CT - GJ0782331779 """|45238.0|39.110403520287704|-84.5963707751785|12/02/2021 12:00:00 AM|12/02/2021 12:00:00 AM|12/02/2021 12:00:00 AM
222|SR21102478|CLOS|"""Tall grass/weeds, PS property"""|"""TLGR-PS"""|"""ROW ON READING """|Public Services|2021-12-02|2021-12-02|2022-01-31|"""READING RD & VICTORY PKWY - GJ1828937772 """|45229.0|39.1617914321952|-84.4735024600773|12/02/2021 12:00:00 AM|12/02/2021 12:00:00 AM|12/02/2021 12:00:00 AM
223|SR21102286|NEW|"""Dumping, prv prop <2500 sq ft"""|"""DUMP-PVS"""|"""Request entered through the Web. Refer to Intake Questions for further description."""|Public Services|2021-12-02|2021-12-02|2022-01-16|"""7525 GRACELY DR, CINC - FJ9816733923"""|45233.0|39.1319624092628|-84.707348425571|12/02/2021 12:00:00 AM|12/02/2021 12:00:00 AM|12/02/2021 12:00:00 AM
224|SR21102248|OPEN|"""Roaches - bldg or apartment"""|"""ROACHES"""|"""ROACHES"""|Cinc Health Dept|2021-12-02|2021-12-02|2022-05-31|"""898 WALNUT ST - GJ1511631420 """|45202.0|39.1054002309202|-84.51221636041471|12/02/2021 12:00:00 AM|12/02/2021 12:00:00 AM|12/02/2021 12:00:00 AM
225|SR21102416|CLOS|"""Heat, no heat hazard"""|"""HEAT"""|"""NO HEAT"""|Cinc Health Dept|2021-12-02|2021-12-06|2022-05-31|"""3068 WEST TOWER AV - GJ0713634264 """|45238.0|39.1329367044458|-84.603552168837|12/02/2021 12:00:00 AM|12/06/2021 12:00:00 AM|12/06/2021 12:00:00 AM
226|SR21102452|CLOS|"""Tall grass/weeds, PS property"""|"""TLGR-PS"""|"""stop sign over grown """|Public Services|2021-12-02|2021-12-02|2022-01-31|"""499 HARRIET ST - GJ1297630724 """|45203.0|39.0996612039227|-84.5371577978362|12/02/2021 12:00:00 AM|12/02/2021 12:00:00 AM|12/02/2021 12:00:00 AM
227|SR21102410|OPEN|"""Rats, problem/infestation"""|"""RATS"""|"""INFESTED"""|Cinc Health Dept|2021-12-02|2021-12-06|2022-05-31|"""2556 A RING PL - GJ1116532033 """|45204.0|39.1118824628396|-84.5576795149185|12/02/2021 12:00:00 AM|12/06/2021 12:00:00 AM|12/06/2021 12:00:00 AM
228|SR21102340|NEW|"""Food operation, unsanitry cond"""|"""FOOD_RES"""|"""CALLER STATES ROACHES IN KITCHEN & BATHROOM"""|Cinc Health Dept|2021-12-02|2021-12-02|2022-05-31|"""6225 GLENWAY AV - GJ0531435473 """|45211.0|39.144256205382|-84.6242516403283|12/02/2021 12:00:00 AM|12/02/2021 12:00:00 AM|12/02/2021 12:00:00 AM
229|SR21102361|OPEN|"""Mold, building or apartment"""|"""MOLD"""|"""BATHRM CEILING """|Cinc Health Dept|2021-12-02|2021-12-06|2022-05-31|"""942 GRAND AV - GJ1091831634 """|45205.0|39.1083527035626|-84.560653622883|12/02/2021 12:00:00 AM|12/06/2021 12:00:00 AM|12/06/2021 12:00:00 AM
230|SR21102583|NEW|"""Pavement markings, faded"""|"""PAVMK"""|"""Transfer: 12/03/2021 8:33 AM/SGOODWINREFER TO DPS - READ NOTES  - Request entered through the Web. Refer to Intake Questions for further description."""|Public Services|2021-12-02|2021-12-03|2022-01-02|"""GEIER DR & MARBURG AV"""|45209.0|39.162799551758496|-84.424630034908|12/02/2021 12:00:00 AM|12/03/2021 12:00:00 AM|12/03/2021 12:00:00 AM
231|SR21102268|CLOS|"""Food borne illness 2+persons"""|"""FDBRNLLN"""|"""Wendy's- Scarlet Oaks school nurse reports 22 kids ate at the location and 18 are experiencing GI issues. 7 are absent from school today."""|Cinc Health Dept|2021-12-02|2021-12-06|2022-05-31|"""1015 GEST ST - GJ1323331475 """|45203.0|39.1063636813426|-84.53395387856149|12/02/2021 12:00:00 AM|12/06/2021 12:00:00 AM|12/06/2021 12:00:00 AM
232|SR21102567|NEW|"""Building, residential"""|"""BLD-RES"""|"""Request entered through the Web. Refer to Intake Questions for further description."""|Cinc Building Dept|2021-12-02|2021-12-02|2022-12-02|"""3049 PENROSE PL, CINC - GJ0720835837"""|45211.0|39.147088036952|-84.6022367886193|12/02/2021 12:00:00 AM|12/02/2021 12:00:00 AM|12/02/2021 12:00:00 AM
233|SR21102332|NEW|"""Building, residential"""|"""BLD-RES"""|"""Exterior violations"""|Cinc Building Dept|2021-12-02|2021-12-02|2022-12-02|"""1721 WESTWOOD AV - GJ1140633489 """|45214.0|39.124930327057|-84.55443670290309|12/02/2021 12:00:00 AM|12/02/2021 12:00:00 AM|12/02/2021 12:00:00 AM
234|SR21102426|CLOS|"""Litter, private property"""|"""LITR-PRV"""|"""Request entered through the Web. Refer to Intake Questions for further description."""|Public Services|2021-12-02|2021-12-06|2022-01-16|"""1542 RIVERSIDE DR, CINC - GJ1722832480"""|45202.0|39.11442338399579|-84.4874660329278|12/02/2021 12:00:00 AM|12/06/2021 12:00:00 AM|12/06/2021 12:00:00 AM
235|SR21102486|CLOS|"""Litter, private property"""|"""LITR-PRV"""|"""TRASH ALL OVER PROPERTY """|Public Services|2021-12-02|2021-12-03|2022-01-16|"""2996 W MCMICKEN AV - GJ1333134988 """|45225.0|39.137961361574895|-84.5317117255551|12/02/2021 12:00:00 AM|12/03/2021 12:00:00 AM|12/03/2021 12:00:00 AM
236|SR21102411|OPEN|"""Litter, private property"""|"""LITR-PRV"""|"""litter all around the dumpster"""|Public Services|2021-12-02|2021-12-02|2022-01-16|"""3000 WARDALL AV - GJ0748036970 """|45211.0|39.157216775302295|-84.59874762151071|12/02/2021 12:00:00 AM|12/02/2021 12:00:00 AM|12/02/2021 12:00:00 AM
237|SR21102302|OPEN|"""Litter, private property"""|"""LITR-PRV"""|"""litter and debris on private"""|Public Services|2021-12-02|2021-12-03|2022-01-16|"""2502 FORTHMANN PL - GJ0929634310 PRIVATE STREET"""|45211.0|39.1328380960731|-84.5785688856552|12/02/2021 12:00:00 AM|12/03/2021 12:00:00 AM|12/03/2021 12:00:00 AM
238|SR21102381|CLOS|"""Dumping, prv prop <2500 sq ft"""|"""DUMP-PVS"""|"""Request entered through the Web. Refer to Intake Questions for further description."""|Public Services|2021-12-02|2021-12-03|2022-01-16|"""4460 MELLWOOD AV, CINC - GJ1458538424"""|45232.0|39.168591460145706|-84.5161248107902|12/02/2021 12:00:00 AM|12/03/2021 12:00:00 AM|12/03/2021 12:00:00 AM
239|SR21102449|NEW|"""Building, residential"""|"""BLD-RES"""|"""Unit 3 - no heat for 3 weeks, broken window, soiled capets, mice infestation """|Cinc Building Dept|2021-12-02|2021-12-02|2022-12-02|"""843 DELEHANTY CT - GJ0782331779 """|45238.0|39.110403520287704|-84.5963707751785|12/02/2021 12:00:00 AM|12/02/2021 12:00:00 AM|12/02/2021 12:00:00 AM
240|SR21102385|OPEN|"""Litter, private property"""|"""LITR-PRV"""|"""Request entered through the Web. Refer to Intake Questions for further description."""|Public Services|2021-12-02|2021-12-02|2022-01-16|"""3824 TAPPAN AV, CINC - GJ1127837044"""|45223.0|39.156973988733796|-84.55479829040749|12/02/2021 12:00:00 AM|12/02/2021 12:00:00 AM|12/02/2021 12:00:00 AM
241|SR21102465|OPEN|"""Mold, building or apartment"""|"""MOLD"""|"""BTHRM"""|Cinc Health Dept|2021-12-02|2021-12-06|2022-05-31|"""5400 HAMILTON AV - GJ1202740515 """|45224.0|39.1880424409006|-84.545066871573|12/02/2021 12:00:00 AM|12/06/2021 12:00:00 AM|12/06/2021 12:00:00 AM
242|SR21102429|CLOS|"""Litter, private property"""|"""LITR-PRV"""|"""Request entered through the Web. Refer to Intake Questions for further description."""|Public Services|2021-12-02|2021-12-03|2022-01-16|"""1643 TREMONT ST, CINC - GJ1157633776"""|45214.0|39.1274797875109|-84.55237443015601|12/02/2021 12:00:00 AM|12/03/2021 12:00:00 AM|12/03/2021 12:00:00 AM
243|SR21102464|CLOS|"""Tall grass/weeds, PS property"""|"""TLGR-PS"""|"""ROW CUT """|Public Services|2021-12-02|2021-12-02|2022-01-31|"""1255 MANSS AV - GJ0937732449 """|45205.0|39.1160641703353|-84.5782071156516|12/02/2021 12:00:00 AM|12/02/2021 12:00:00 AM|12/02/2021 12:00:00 AM
244|SR21102313|OPEN|"""Litter, private property"""|"""LITR-PRV"""|"""Request entered through the Web. Refer to Intake Questions for further description."""|Public Services|2021-12-02|2021-12-02|2022-01-16|"""818 GLENWOOD AV, CINC - GJ1707636186"""|45229.0|39.1478309572369|-84.4880295880138|12/02/2021 12:00:00 AM|12/02/2021 12:00:00 AM|12/02/2021 12:00:00 AM
245|SR21102488|CLOS|"""Heat, no heat hazard"""|"""HEAT"""|"""COMMON AREAS ARE OUT IN THIS BLD - NO HEAT -"""|Cinc Health Dept|2021-12-02|2021-12-06|2022-05-31|"""6018 DAHLGREN ST - GJ2543638540 """|45227.0|39.1668908136406|-84.3906100940068|12/02/2021 12:00:00 AM|12/06/2021 12:00:00 AM|12/06/2021 12:00:00 AM
246|SR21102454|CLOS|"""Service complaint, yardwaste"""|"""SVCCMPLY"""|"""RTC-missed collections, this was a missed date of 11/26/2021 previously SR21101344 closed out as collected, but the bags are still there..
R.STONE PLEASE GIVE A CALL BACK.

12/03/2021 8:58 AM/SGOODWIN - PER 729- WILL COLLECT ONCE IN AREA. CURRENTLY AT DUMP
12/03/2021 9:41 AM/SGOODWIN - DISPATCHED TO 729"""|Public Services|2021-12-02|2021-12-03|2022-01-01|"""2914 GRASSELLI AV - GJ0889335124 r.stone"""|45211.0|39.140256458840604|-84.5829849366625|12/02/2021 12:00:00 AM|12/03/2021 12:00:00 AM|12/03/2021 12:00:00 AM
247|SR21102443|NEW|"""Building, residential"""|"""BLD-RES"""|"""Living room closet has a leaking pipe causing mold growth in it. Also the ceiling in the living room fell in and has left a hole, this was  from a previous busted pipe. Maintence will not return any calls.. Aside from the mold, citizen states there is a roach and rat infestation."""|Cinc Building Dept|2021-12-02|2021-12-02|2022-12-02|"""1860 QUEEN CITY AV - GJ1088733701 """|45214.0|39.12697265983479|-84.5603706515475|12/02/2021 12:00:00 AM|12/02/2021 12:00:00 AM|12/02/2021 12:00:00 AM
248|SR21102448|OPEN|"""Litter, private property"""|"""LITR-PRV"""|"""Request entered through the Web. Refer to Intake Questions for further description."""|Public Services|2021-12-02|2021-12-02|2022-01-16|"""2012 POWERS ST, CINC - """|45223.0|39.1577110882591|-84.5538074406112|12/02/2021 12:00:00 AM|12/02/2021 12:00:00 AM|12/02/2021 12:00:00 AM
249|SR21102541|CLOS|"""Litter, private property"""|"""LITR-PRV"""|"""trash, metal and yard waste are all being dumped on malory ct """|Public Services|2021-12-02|2021-12-03|2022-01-16|"""BURKE AV & MALORY CT - GJ1903834981 """|45207.0|39.1364786765985|-84.46574627965991|12/02/2021 12:00:00 AM|12/03/2021 12:00:00 AM|12/03/2021 12:00:00 AM
250|SR21102326|CLOS|"""Heat, no heat hazard"""|"""HEAT"""|"""NO HEAT"""|Cinc Health Dept|2021-12-02|2021-12-06|2022-05-31|"""2550 A HARRISON AV - GJ0873835372 """|45211.0|39.1425298607695|-84.58469930072799|12/02/2021 12:00:00 AM|12/06/2021 12:00:00 AM|12/06/2021 12:00:00 AM
251|SR21102475|CLOS|"""Tall grass/weeds, PS property"""|"""TLGR-PS"""|"""CUT ROW """|Public Services|2021-12-02|2021-12-02|2022-01-31|"""4466 READING RD - GJ1852738191 """|45229.0|39.165506841767|-84.4706151806458|12/02/2021 12:00:00 AM|12/02/2021 12:00:00 AM|12/02/2021 12:00:00 AM
252|SR21102316|OPEN|"""Building, commercial CBHCODEC"""|"""BLD-COM"""|"""Working in violation of the permit"""|Cinc Building Dept|2021-12-02|2021-12-02|2022-05-31|"""1608 HOFFNER ST - GJ1255037279 """|45223.0|39.1587782188694|-84.54002820472141|12/02/2021 12:00:00 AM|12/02/2021 12:00:00 AM|12/02/2021 12:00:00 AM
253|SR21102205|CLOS|"""Tree, trim required public"""|"""TRTRIMUF"""|"""Transfer: 12/02/2021 1:13 AM/SMOOREtransfer to parks  - Request entered through the Web. Refer to Intake Questions for further description."""|Park Department|2021-12-01|2021-12-06|2022-12-02|"""112 E CHARLTON ST, CINC - GJ1548434205"""|45219.0|39.1303852022901|-84.5070603621513|12/01/2021 12:00:00 AM|12/06/2021 12:00:00 AM|12/06/2021 12:00:00 AM
254|SR21102019|NEW|"""Building, residential"""|"""BLD-RES"""|"""illegal apartment in basement. Shower does not have a drain, No second egress for bedroom. """|Cinc Building Dept|2021-12-01|2021-12-01|2022-12-01|"""3827 BOUDINOT AV - GJ0714237317 """|45211.0|39.1604243224388|-84.6025510071677|12/01/2021 12:00:00 AM|12/01/2021 12:00:00 AM|12/01/2021 12:00:00 AM
255|SR21102134|OPEN|"""Building, residential"""|"""BLD-RES"""|"""insect and rodent control. """|Cinc Building Dept|2021-12-01|2021-12-06|2022-12-01|"""3656 GLENWAY AV - GJ0982932250 """|45205.0|39.1141655352222|-84.5730427775574|12/01/2021 12:00:00 AM|12/06/2021 12:00:00 AM|12/06/2021 12:00:00 AM
256|SR21101994|OPEN|"""Vehicle, abandon priv p no acc"""|"""ABAN-VNA"""|"""JV"""|Cinc Health Dept|2021-12-01|2021-12-02|2022-01-20|"""762 HAND AV - GJ1439339419 """|45232.0|39.1775962969541|-84.51804155679271|12/01/2021 12:00:00 AM|12/02/2021 12:00:00 AM|12/02/2021 12:00:00 AM
257|SR21102185|NEW|"""Building, vacant and open res"""|"""BLD_VACR"""|"""Request entered through the Web. Refer to Intake Questions for further description."""|Cinc Building Dept|2021-12-01|2021-12-01|2022-02-11|"""319 E MITCHELL AV, CINC - GJ1646437550"""|45217.0|39.160197234582206|-84.4946090771826|12/01/2021 12:00:00 AM|12/01/2021 12:00:00 AM|12/01/2021 12:00:00 AM
258|SR21102100|CLOS|"""Food operation, request gen"""|"""GRCRYCNC"""|"""Wendy's- Caller states no restrooms available for dine-in customers."""|Cinc Health Dept|2021-12-01|2021-12-06|2022-05-30|"""855 WILLIAM H TAFT RD - GJ1696133894 """|45206.0|39.1272172836071|-84.4900983234157|12/01/2021 12:00:00 AM|12/06/2021 12:00:00 AM|12/06/2021 12:00:00 AM
259|SR21101973|CLOS|"""Litter, private property"""|"""LITR-PRV"""|"""persons living at this building are throwing garbage onto the address of 2639 Stanton.  Please see email"""|Public Services|2021-12-01|2021-12-03|2022-01-15|"""2635 STANTON AV - GJ1673934076 """|45206.0|39.128912479783395|-84.492614511941|12/01/2021 12:00:00 AM|12/03/2021 12:00:00 AM|12/03/2021 12:00:00 AM
260|SR21101944|NEW|"""Dumping, prv prop <2500 sq ft"""|"""DUMP-PVS"""|"""Request entered through the Web. Refer to Intake Questions for further description."""|Public Services|2021-12-01|2021-12-01|2022-01-15|"""209 WADE ST, CINC - GJ1444932185"""|45202.0|39.112455011611|-84.5196695563522|12/01/2021 12:00:00 AM|12/01/2021 12:00:00 AM|12/01/2021 12:00:00 AM
261|SR21102030|NEW|"""Roaches - bldg or apartment"""|"""ROACHES"""|"""ROACHES """|Cinc Health Dept|2021-12-01|2021-12-01|2022-05-30|"""1304 BEECH AV - GJ0949532566 """|45205.0|39.1170917156635|-84.57680612516592|12/01/2021 12:00:00 AM|12/01/2021 12:00:00 AM|12/01/2021 12:00:00 AM
262|SR21102033|NEW|"""Building, residential"""|"""BLD-RES"""|"""Request entered through the Web. Refer to Intake Questions for further description."""|Cinc Building Dept|2021-12-01|2021-12-01|2022-12-01|"""6479 DALY RD, CINC - GJ1308542722"""|45224.0|39.2076537164687|-84.5321108603618|12/01/2021 12:00:00 AM|12/01/2021 12:00:00 AM|12/01/2021 12:00:00 AM
263|SR21102009|OPEN|"""Mice, building has mice"""|"""MICE-BLD"""|"""MICE IN THE APT """|Cinc Health Dept|2021-12-01|2021-12-02|2022-05-30|"""3977 YEARLING CT - GJ0939436666 """|45211.0|39.15402117755|-84.5767155404658|12/01/2021 12:00:00 AM|12/02/2021 12:00:00 AM|12/02/2021 12:00:00 AM
264|SR21102197|CLOS|"""Vehicle, abandon priv p access"""|"""ABAN-VPR"""|"""Request entered through the Web. Refer to Intake Questions for further description."""|Cinc Health Dept|2021-12-01|2021-12-02|2022-01-20|"""3923 HOLBROOK AV, CINC - GJ2168731958"""|45226.0|39.1086028413189|-84.43610483088541|12/01/2021 12:00:00 AM|12/02/2021 12:00:00 AM|12/02/2021 12:00:00 AM
265|SR21102027|NEW|"""Building, vacant and open res """|"""BLD_VACR"""|"""Inspect to update conditions & reissue KVV case B200801617"""|Cinc Building Dept|2021-12-01|2021-12-01|2022-02-11|"""2571 LIDDELL ST - GJ1206234216 """|45225.0|39.131319289887706|-84.5466224427436|12/01/2021 12:00:00 AM|12/01/2021 12:00:00 AM|12/01/2021 12:00:00 AM
266|SR21102002|NEW|"""Building, residential"""|"""BLD-RES"""|"""Request entered through the Web. Refer to Intake Questions for further description."""|Cinc Building Dept|2021-12-01|2021-12-01|2022-12-01|"""4656 LINDA DR, CINC - GJ0815232166"""|45238.0|39.1138140027367|-84.59245000132641|12/01/2021 12:00:00 AM|12/01/2021 12:00:00 AM|12/01/2021 12:00:00 AM
267|SR21102113|NEW|"""Building, residential"""|"""BLD-RES"""|"""Request entered through the Web. Refer to Intake Questions for further description."""|Cinc Building Dept|2021-12-01|2021-12-01|2022-12-01|"""2408 KENTON ST, CINC - GJ1662533642"""|45206.0|39.1250318500821|-84.4940559171559|12/01/2021 12:00:00 AM|12/01/2021 12:00:00 AM|12/01/2021 12:00:00 AM
268|SR21102184|NEW|"""Building, vacant and open res"""|"""BLD_VACR"""|"""Request entered through the Web. Refer to Intake Questions for further description."""|Cinc Building Dept|2021-12-01|2021-12-01|2022-02-11|"""887 CLINTON SPRINGS AV, CINC - GJ1733536900"""|45229.0|39.1541862370522|-84.48480549896979|12/01/2021 12:00:00 AM|12/01/2021 12:00:00 AM|12/01/2021 12:00:00 AM
269|SR21102119|CLOS|"""Dumping, prv prop <2500 sq ft"""|"""DUMP-PVS"""|"""Request entered through the Web. Refer to Intake Questions for further description."""|Public Services|2021-12-01|2021-12-02|2022-01-15|"""5020 WINTON RIDGE LN, CINC - GJ1456140023"""|45232.0|39.1829945589447|-84.5158887929615|12/01/2021 12:00:00 AM|12/02/2021 12:00:00 AM|12/02/2021 12:00:00 AM
270|SR21101948|CLOS|"""Dumping, prv prop <2500 sq ft"""|"""DUMP-PVS"""|"""Dumping site on Liddell St. Items include furniture, matteress, and bags of trash."""|Public Services|2021-12-01|2021-12-01|2022-01-15|"""DEMPSEY ST & LIDDELL ST - GJ1204834284 """|45225.0|39.1319374707334|-84.5467638533091|12/01/2021 12:00:00 AM|12/01/2021 12:00:00 AM|12/01/2021 12:00:00 AM
271|SR21102141|NEW|"""Building, illegal use res prop"""|"""BLD_USER"""|"""Request entered through the Web. Refer to Intake Questions for further description."""|Cinc Building Dept|2021-12-01|2021-12-01|2022-02-11|"""1266 SLIKER AV, CINC - GJ0895732541"""|45205.0|39.117026743096396|-84.5828751186425|12/01/2021 12:00:00 AM|12/01/2021 12:00:00 AM|12/01/2021 12:00:00 AM
272|SR21102122|CLOS|"""Litter, private property"""|"""LITR-PRV"""|"""Request entered through the Web. Refer to Intake Questions for further description."""|Public Services|2021-12-01|2021-12-02|2022-01-15|"""2502 FORTHMANN PL, CINC - GJ0929634310  PRIVATE STREET"""|45211.0|39.1328380960731|-84.5785688856552|12/01/2021 12:00:00 AM|12/02/2021 12:00:00 AM|12/02/2021 12:00:00 AM
273|SR21102210|OPEN|"""Sidewalk, Obstructions"""|"""ADASDWKO"""|"""Transfer: 12/02/2021 1:15 AM/SMOORETransfer to DOTE Sidewalk Obstructions  - Request entered through the Web. Refer to Intake Questions for further description."""|Dept of Trans and Eng|2021-12-01|2021-12-02|2022-05-31|"""2605 EDEN AV, CINC - GJ1552034078"""|45219.0|39.1292407920776|-84.5066962494885|12/01/2021 12:00:00 AM|12/02/2021 12:00:00 AM|12/02/2021 12:00:00 AM
274|SR21102115|NEW|"""Building, residential"""|"""BLD-RES"""|"""Request entered through the Web. Refer to Intake Questions for further description."""|Cinc Building Dept|2021-12-01|2021-12-01|2022-12-01|"""2408 KENTON ST, CINC - GJ1662533642"""|45206.0|39.1250318500821|-84.4940559171559|12/01/2021 12:00:00 AM|12/01/2021 12:00:00 AM|12/01/2021 12:00:00 AM
275|SR21102028|CLOS|"""Sign, grnd mnted new/chang/rem"""|"""NW/MSSNG"""|"""Request entered through the Web. Refer to Intake Questions for further description."""|Dept of Trans and Eng|2021-12-01|2021-12-01|2022-03-01|"""5732 ARNSBY PL, CINC - GJ2500236781"""|45227.0|39.1509703028304|-84.3960227069847|12/01/2021 12:00:00 AM|12/01/2021 12:00:00 AM|12/01/2021 12:00:00 AM
276|SR21102048|OPEN|"""Sidewalk, repair haz"""|"""SIDWLKH"""|"""Request entered through the Web. Refer to Intake Questions for further description."""|Dept of Trans and Eng|2021-12-01|2021-12-01|2022-05-30|"""135 JOE NUXHALL WY, CINC - """|45202.0|39.096915543406205|-84.5088052136887|12/01/2021 12:00:00 AM|12/01/2021 12:00:00 AM|12/02/2021 12:00:00 AM
277|SR21102089|NEW|"""Tree, dead on priv prop stndrd"""|"""TREEPR"""|"""tree in rear of yard oppisitte side of driveway. dropping limbs."""|Cinc Building Dept|2021-12-01|2021-12-01|2022-03-01|"""946 OLIVE AV - GJ0982631727 """|45205.0|39.1094490458512|-84.57324923147591|12/01/2021 12:00:00 AM|12/01/2021 12:00:00 AM|12/01/2021 12:00:00 AM
278|SR21102130|NEW|"""Litter, private property"""|"""LITR-PRV"""|"""Request entered through the Web. Refer to Intake Questions for further description."""|Public Services|2021-12-01|2021-12-01|2022-01-15|"""1725 ATSON LN, CINC - GJ1005532821"""|45205.0|39.1192578332214|-84.5702490016508|12/01/2021 12:00:00 AM|12/01/2021 12:00:00 AM|12/01/2021 12:00:00 AM
279|SR21102050|NEW|"""Parking, grass front yd res"""|"""PRKNGYRD"""|"""Request entered through the Web. Refer to Intake Questions for further description."""|Cinc Building Dept|2021-12-01|2021-12-01|2022-05-30|"""234 AVALON ST, CINC - GJ1854142797"""|45216.0|39.2069766654979|-84.4689511533639|12/01/2021 12:00:00 AM|12/01/2021 12:00:00 AM|12/01/2021 12:00:00 AM
280|SR21102118|OPEN|"""Litter, private property"""|"""LITR-PRV"""|"""Request entered through the Web. Refer to Intake Questions for further description."""|Public Services|2021-12-01|2021-12-03|2022-01-15|"""2408 KENTON ST, CINC - GJ1662533642"""|45206.0|39.1250318500821|-84.4940559171559|12/01/2021 12:00:00 AM|12/03/2021 12:00:00 AM|12/03/2021 12:00:00 AM
281|SR21102082|NEW|"""Building, residential"""|"""BLD-RES"""|"""Request entered through the Web. Refer to Intake Questions for further description."""|Cinc Building Dept|2021-12-01|2021-12-01|2022-12-01|"""615 MCALPIN AV, CINC - GJ1333236335"""|45220.0|39.1500913782936|-84.53127575571399|12/01/2021 12:00:00 AM|12/01/2021 12:00:00 AM|12/01/2021 12:00:00 AM
282|SR21101971|OPEN|"""Heat, no heat hazard"""|"""HEAT"""|"""NO HEAT """|Cinc Health Dept|2021-12-01|2021-12-01|2022-05-30|"""6000 TOWNEVISTA DR - GJ1450041894 """|45224.0|39.1998465344614|-84.5160159028039|12/01/2021 12:00:00 AM|12/01/2021 12:00:00 AM|12/01/2021 12:00:00 AM
283|SR21102062|NEW|"""Mice, building has mice"""|"""MICE-BLD"""|"""MICE"""|Cinc Health Dept|2021-12-01|2021-12-01|2022-05-30|"""3827 BOUDINOT AV - GJ0714237317 """|45211.0|39.1604243224388|-84.6025510071677|12/01/2021 12:00:00 AM|12/01/2021 12:00:00 AM|12/01/2021 12:00:00 AM
